[
  {
    "id": "103b6620-03df-4caf-a4b9-041a174974b0",
    "title": "Gousha",
    "start_time": 120.159,
    "end_time": 178.479,
    "video_id": "627c3a87-65fb-4c7b-819f-fa4c63f37811",
    "profile_id": "19c47219-e31a-4208-a6db-a135cff22207",
    "latitude": 35.2180108,
    "longitude": -80.9427183,
    "created_at": "2025-12-11T19:46:08.569+00:00"
  },
  {
    "id": "7031586a-00d5-417a-9e12-9ec92ae3bc0c",
    "title": null,
    "start_time": 112.959,
    "end_time": 130.878,
    "video_id": "adcb9f8d-362c-4a5f-884b-75653471ac3e",
    "profile_id": "19c47219-e31a-4208-a6db-a135cff22207",
    "latitude": 43.816085,
    "longitude": -79.6043452,
    "created_at": "2025-12-24T20:54:50.409+00:00"
  },
  {
    "id": "e415d1c4-cb2c-45b7-ab49-f02c559ee0ea",
    "title": "Play to you, work to others",
    "start_time": 2695.039,
    "end_time": 2720.96,
    "video_id": "bb17dc86-8913-4b9d-9067-a4cbeebba9d7",
    "profile_id": "19c47219-e31a-4208-a6db-a135cff22207",
    "latitude": 43.6704367,
    "longitude": -79.4051507,
    "created_at": "2025-12-09T13:29:51.783+00:00"
  },
  {
    "id": "8fab9b3b-434c-44d3-bdd5-b63f8d848a9d",
    "title": "Flip the message, feel the magic",
    "start_time": 1241.279,
    "end_time": 1277.909,
    "video_id": "c30a40b3-2ae6-4e19-b59c-ca7f93a03e69",
    "profile_id": "19c47219-e31a-4208-a6db-a135cff22207",
    "latitude": 28.4113934,
    "longitude": -81.3174205,
    "created_at": "2025-12-20T16:32:15.15+00:00"
  },
  {
    "id": "75b871dc-b376-49d2-81e4-e090ccfd16e4",
    "title": "China has a phase out plan",
    "start_time": 1343.519,
    "end_time": 1382.72,
    "video_id": "ff8038f8-e164-49d1-898b-8c9a46fc9538",
    "profile_id": "19c47219-e31a-4208-a6db-a135cff22207",
    "latitude": 28.4116677,
    "longitude": -81.316045,
    "created_at": "2025-12-20T13:14:47.373+00:00"
  },
  {
    "id": "d1cfbd68-3ae9-478b-a1d7-a6bf3de3cbb6",
    "title": "Kids give you meaning and make life better",
    "start_time": 9294.959,
    "end_time": 9342.149,
    "video_id": "bb17dc86-8913-4b9d-9067-a4cbeebba9d7",
    "profile_id": "19c47219-e31a-4208-a6db-a135cff22207",
    "latitude": 43.7152394,
    "longitude": -79.4438417,
    "created_at": "2025-12-10T13:22:58.827+00:00"
  },
  {
    "id": "76f93f9e-1f39-4034-a370-2adfccd1c3db",
    "title": "Map of consiousness",
    "start_time": 23.92,
    "end_time": 31.039,
    "video_id": "9350aa85-5c02-4f0b-9bef-2f3fd67bb58e",
    "profile_id": "19c47219-e31a-4208-a6db-a135cff22207",
    "latitude": 43.6866261,
    "longitude": -79.6219613,
    "created_at": "2025-12-11T16:19:47.026+00:00"
  },
  {
    "id": "41b508fa-0b57-4cde-9986-61e42bc843b7",
    "title": null,
    "start_time": 90.719,
    "end_time": 105.519,
    "video_id": "cbf1e53e-cde1-410d-adab-3b98ec7ac11a",
    "profile_id": "19c47219-e31a-4208-a6db-a135cff22207",
    "latitude": 43.7992772,
    "longitude": -79.6130994,
    "created_at": "2025-12-23T20:00:35.486+00:00"
  },
  {
    "id": "4a2fd7fc-cd59-4ea9-802f-404cd0ee092e",
    "title": "Pride and sunk cost fallacy, explore!",
    "start_time": 1821.599,
    "end_time": 1856.788,
    "video_id": "bb17dc86-8913-4b9d-9067-a4cbeebba9d7",
    "profile_id": "19c47219-e31a-4208-a6db-a135cff22207",
    "latitude": 43.6974352,
    "longitude": -79.4308293,
    "created_at": "2025-12-09T13:21:37.61+00:00"
  },
  {
    "id": "a55edd11-ad83-4576-997c-e080c6a585c8",
    "title": "Recontextualized Lessons",
    "start_time": 7033.439,
    "end_time": 7045.43,
    "video_id": "bb17dc86-8913-4b9d-9067-a4cbeebba9d7",
    "profile_id": "19c47219-e31a-4208-a6db-a135cff22207",
    "latitude": 43.7432022,
    "longitude": -79.4579072,
    "created_at": "2025-12-10T01:51:48.887+00:00"
  },
  {
    "id": "5936254a-e64d-440d-8433-7429d5ef443c",
    "title": "People are helping you",
    "start_time": 183.199,
    "end_time": 190.8,
    "video_id": "9319d553-1ca4-4d68-9981-7b6b510caf1e",
    "profile_id": "19c47219-e31a-4208-a6db-a135cff22207",
    "latitude": 43.7992729,
    "longitude": -79.6130914,
    "created_at": "2025-12-08T15:20:57.625+00:00"
  },
  {
    "id": "26fd3c14-3530-48ab-a74a-1f8cbe9b371e",
    "title": "Phytosterols compete with cholesterol",
    "start_time": 204.719,
    "end_time": 238.71,
    "video_id": "0e6de103-3529-44c1-91b2-e9c5b3951185",
    "profile_id": "19c47219-e31a-4208-a6db-a135cff22207",
    "latitude": 28.4116677,
    "longitude": -81.316045,
    "created_at": "2025-12-20T12:43:35.53+00:00"
  },
  {
    "id": "0e0b9700-900b-4882-bce5-651496dfc426",
    "title": null,
    "start_time": 695.839,
    "end_time": 708.679,
    "video_id": "90e99714-0db1-4f3b-9c1a-f6263e9b22e9",
    "profile_id": "19c47219-e31a-4208-a6db-a135cff22207",
    "latitude": 43.8911621,
    "longitude": -79.5615732,
    "created_at": "2025-12-24T21:06:30.263+00:00"
  },
  {
    "id": "d0f8c3da-616b-42c4-b90d-f65d4fd3abbd",
    "title": "Sleeping Face down bad",
    "start_time": 251.199,
    "end_time": 269.279,
    "video_id": "627c3a87-65fb-4c7b-819f-fa4c63f37811",
    "profile_id": "19c47219-e31a-4208-a6db-a135cff22207",
    "latitude": 35.2180108,
    "longitude": -80.9427183,
    "created_at": "2025-12-11T19:47:08.462+00:00"
  },
  {
    "id": "8391bc14-f62a-494c-9d20-51f642de0dff",
    "title": "Flavanoids Mechanisms, lest sticky walls",
    "start_time": 313.439,
    "end_time": 353.519,
    "video_id": "0e6de103-3529-44c1-91b2-e9c5b3951185",
    "profile_id": "19c47219-e31a-4208-a6db-a135cff22207",
    "latitude": 28.4116677,
    "longitude": -81.316045,
    "created_at": "2025-12-20T12:44:57.542+00:00"
  },
  {
    "id": "f937a89d-de72-42ce-a939-1bfc6efb0003",
    "title": "Align on values",
    "start_time": 333.279,
    "end_time": 358.16,
    "video_id": "9319d553-1ca4-4d68-9981-7b6b510caf1e",
    "profile_id": "19c47219-e31a-4208-a6db-a135cff22207",
    "latitude": 43.7992758,
    "longitude": -79.6131044,
    "created_at": "2025-12-08T15:22:54.211+00:00"
  },
  {
    "id": "a5204338-4a5c-4a09-b9cd-51a3202dd226",
    "title": "1 slide presentation",
    "start_time": 151.259,
    "end_time": 162.469,
    "video_id": "0fdb9971-ad0d-495b-b6d7-38cdbf408b93",
    "profile_id": "19c47219-e31a-4208-a6db-a135cff22207",
    "latitude": 43.7036383,
    "longitude": -79.6426665,
    "created_at": "2025-12-11T17:05:10.945+00:00"
  },
  {
    "id": "cfbf76ea-b067-43f0-a5c3-f50ab5581755",
    "title": "DHAs",
    "start_time": 439.199,
    "end_time": 462.468,
    "video_id": "0e6de103-3529-44c1-91b2-e9c5b3951185",
    "profile_id": "19c47219-e31a-4208-a6db-a135cff22207",
    "latitude": 28.4116677,
    "longitude": -81.316045,
    "created_at": "2025-12-20T12:50:15.557+00:00"
  },
  {
    "id": "0ce9e2a8-100f-42bf-8bff-4b1a60295533",
    "title": null,
    "start_time": 652.48,
    "end_time": 652.559,
    "video_id": "9350aa85-5c02-4f0b-9bef-2f3fd67bb58e",
    "profile_id": "19c47219-e31a-4208-a6db-a135cff22207",
    "latitude": 43.6866261,
    "longitude": -79.6219613,
    "created_at": "2025-12-11T16:29:59.602+00:00"
  },
  {
    "id": "8a057dbe-bd9d-47f7-ab58-d19aa8f6f1a1",
    "title": "Not getting candy",
    "start_time": 2695.679,
    "end_time": 2717.909,
    "video_id": "cbf1e53e-cde1-410d-adab-3b98ec7ac11a",
    "profile_id": "19c47219-e31a-4208-a6db-a135cff22207",
    "latitude": 43.7992705,
    "longitude": -79.6130588,
    "created_at": "2025-12-23T04:20:18.629+00:00"
  },
  {
    "id": "061da3b2-1bee-4398-81f2-fa31926919d0",
    "title": null,
    "start_time": 248.239,
    "end_time": 284.16,
    "video_id": "adcb9f8d-362c-4a5f-884b-75653471ac3e",
    "profile_id": "19c47219-e31a-4208-a6db-a135cff22207",
    "latitude": 43.8217342,
    "longitude": -79.5787101,
    "created_at": "2025-12-24T20:56:59.736+00:00"
  },
  {
    "id": "81571dc1-c18c-4313-8262-7b0818cceb50",
    "title": "What daddy does",
    "start_time": 1296.13,
    "end_time": 1317.369,
    "video_id": "0fdb9971-ad0d-495b-b6d7-38cdbf408b93",
    "profile_id": "19c47219-e31a-4208-a6db-a135cff22207",
    "latitude": 35.2190326,
    "longitude": -80.9427183,
    "created_at": "2025-12-11T19:33:20.239+00:00"
  },
  {
    "id": "5ec458df-2189-4045-9ead-9ccfa8560562",
    "title": null,
    "start_time": 338.12,
    "end_time": 370.56,
    "video_id": "90e99714-0db1-4f3b-9c1a-f6263e9b22e9",
    "profile_id": "19c47219-e31a-4208-a6db-a135cff22207",
    "latitude": 43.8297343,
    "longitude": -79.5457673,
    "created_at": "2025-12-24T21:02:48.653+00:00"
  },
  {
    "id": "ffcb53f5-c8fe-42cf-8ca0-228ae71f7448",
    "title": "Email for organization",
    "start_time": 725.44,
    "end_time": 744.078,
    "video_id": "9319d553-1ca4-4d68-9981-7b6b510caf1e",
    "profile_id": "19c47219-e31a-4208-a6db-a135cff22207",
    "latitude": 43.7992735,
    "longitude": -79.613148,
    "created_at": "2025-12-08T15:27:03.407+00:00"
  },
  {
    "id": "528fb933-df24-4008-bb32-6d450e4b5a1a",
    "title": "Smell of testicles",
    "start_time": 2206.96,
    "end_time": 2245.429,
    "video_id": "c30a40b3-2ae6-4e19-b59c-ca7f93a03e69",
    "profile_id": "19c47219-e31a-4208-a6db-a135cff22207",
    "latitude": 0,
    "longitude": 0,
    "created_at": "2025-12-20T16:32:17.001+00:00"
  },
  {
    "id": "b0311ba2-bc3f-4a00-9b9c-6add29e7969b",
    "title": "Expect Nothing",
    "start_time": 11736.639,
    "end_time": 11738.709,
    "video_id": "bb17dc86-8913-4b9d-9067-a4cbeebba9d7",
    "profile_id": "19c47219-e31a-4208-a6db-a135cff22207",
    "latitude": 43.6546242,
    "longitude": -79.3882622,
    "created_at": "2025-12-10T13:47:41.437+00:00"
  },
  {
    "id": "464e2288-c947-4530-a5ff-da0f82820954",
    "title": null,
    "start_time": 41.679,
    "end_time": 49.75,
    "video_id": "9350aa85-5c02-4f0b-9bef-2f3fd67bb58e",
    "profile_id": "19c47219-e31a-4208-a6db-a135cff22207",
    "latitude": 43.6866261,
    "longitude": -79.6219613,
    "created_at": "2025-12-11T16:20:16.91+00:00"
  },
  {
    "id": "5d3c31a3-33b6-48a9-8475-20ae78f53d54",
    "title": "Action > Mentors",
    "start_time": 4679.679,
    "end_time": 4681.52,
    "video_id": "bb17dc86-8913-4b9d-9067-a4cbeebba9d7",
    "profile_id": "19c47219-e31a-4208-a6db-a135cff22207",
    "latitude": 43.6747517,
    "longitude": -79.4069097,
    "created_at": "2025-12-10T01:26:15.016+00:00"
  },
  {
    "id": "68bff3ab-f25b-4fac-99be-51e5093e66e3",
    "title": "Natural instincts for parenting",
    "start_time": 9680.159,
    "end_time": 9830.719,
    "video_id": "bb17dc86-8913-4b9d-9067-a4cbeebba9d7",
    "profile_id": "19c47219-e31a-4208-a6db-a135cff22207",
    "latitude": 43.698981,
    "longitude": -79.434698,
    "created_at": "2025-12-10T13:27:58.142+00:00"
  },
  {
    "id": "13b3dc82-22db-4282-9141-a75213e24ee2",
    "title": "6 v 7",
    "start_time": 1240.88,
    "end_time": 1298.48,
    "video_id": "9350aa85-5c02-4f0b-9bef-2f3fd67bb58e",
    "profile_id": "19c47219-e31a-4208-a6db-a135cff22207",
    "latitude": 43.6878197,
    "longitude": -79.6188024,
    "created_at": "2025-12-11T16:57:41.59+00:00"
  },
  {
    "id": "bf7c91ee-8a5a-4157-b2d6-12ef8d15a411",
    "title": "CnA",
    "start_time": 167.37,
    "end_time": 177.419,
    "video_id": "0fdb9971-ad0d-495b-b6d7-38cdbf408b93",
    "profile_id": "19c47219-e31a-4208-a6db-a135cff22207",
    "latitude": 43.7036383,
    "longitude": -79.6426665,
    "created_at": "2025-12-11T17:05:30.161+00:00"
  },
  {
    "id": "24727bf6-6c03-467d-928c-b7dd04521597",
    "title": null,
    "start_time": 6.878,
    "end_time": 11.839,
    "video_id": "627c3a87-65fb-4c7b-819f-fa4c63f37811",
    "profile_id": "19c47219-e31a-4208-a6db-a135cff22207",
    "latitude": 35.2186142,
    "longitude": -80.9416817,
    "created_at": "2025-12-11T19:44:24.667+00:00"
  },
  {
    "id": "b8493530-dc8a-4b89-81f5-c46cbd8aa965",
    "title": "Fire and PB&J",
    "start_time": 4895.6,
    "end_time": 4946.55,
    "video_id": "6480b574-a065-45d5-8ca1-009d4e433f33",
    "profile_id": "19c47219-e31a-4208-a6db-a135cff22207",
    "latitude": 43.7992839,
    "longitude": -79.6130916,
    "created_at": "2025-12-08T20:22:21.888+00:00"
  },
  {
    "id": "ae2f16b5-89f7-4d35-b4d1-835e20807e27",
    "title": "Bliss Machine says we like surprises",
    "start_time": 4141.198,
    "end_time": 4219.198,
    "video_id": "bb17dc86-8913-4b9d-9067-a4cbeebba9d7",
    "profile_id": "19c47219-e31a-4208-a6db-a135cff22207",
    "latitude": 43.6683953,
    "longitude": -79.3991697,
    "created_at": "2025-12-10T01:22:18.09+00:00"
  },
  {
    "id": "235ebf6a-6b43-44f4-83ec-2ddb9040df1d",
    "title": null,
    "start_time": 9368.239,
    "end_time": 9378.879,
    "video_id": "bb17dc86-8913-4b9d-9067-a4cbeebba9d7",
    "profile_id": "19c47219-e31a-4208-a6db-a135cff22207",
    "latitude": 43.7157664,
    "longitude": -79.4431384,
    "created_at": "2025-12-10T13:23:21.841+00:00"
  },
  {
    "id": "7153ce35-13f7-4f74-b402-8d37da580e85",
    "title": "Lycopene the best caratenoid",
    "start_time": 158.239,
    "end_time": 189.36,
    "video_id": "0e6de103-3529-44c1-91b2-e9c5b3951185",
    "profile_id": "19c47219-e31a-4208-a6db-a135cff22207",
    "latitude": 28.4116677,
    "longitude": -81.316045,
    "created_at": "2025-12-20T12:42:37.829+00:00"
  },
  {
    "id": "7049a923-726c-4e1b-8e89-869c074189a2",
    "title": null,
    "start_time": 899.44,
    "end_time": 907.039,
    "video_id": "9319d553-1ca4-4d68-9981-7b6b510caf1e",
    "profile_id": "19c47219-e31a-4208-a6db-a135cff22207",
    "latitude": 43.7992849,
    "longitude": -79.613091,
    "created_at": "2025-12-08T15:28:44.483+00:00"
  },
  {
    "id": "f055618e-3cff-47f4-a40a-8b15cacb2d1e",
    "title": "Tounging loose tooth and testing people",
    "start_time": 1379.038,
    "end_time": 1408.788,
    "video_id": "c30a40b3-2ae6-4e19-b59c-ca7f93a03e69",
    "profile_id": "19c47219-e31a-4208-a6db-a135cff22207",
    "latitude": 28.4180672,
    "longitude": -81.3198276,
    "created_at": "2025-12-20T16:32:15.608+00:00"
  },
  {
    "id": "c01818c2-708c-4e30-8482-53db1e04d4b5",
    "title": "I cant help you",
    "start_time": 2594.159,
    "end_time": 2658.159,
    "video_id": "0e235d6d-d930-4b3b-9e25-f49ded9f8883",
    "profile_id": "19c47219-e31a-4208-a6db-a135cff22207",
    "latitude": 43.7992719,
    "longitude": -79.6130667,
    "created_at": "2025-12-08T20:59:51.516+00:00"
  },
  {
    "id": "b38e1ee4-888b-481a-a3e4-0974143dbb08",
    "title": "Strongest dream in the room wins",
    "start_time": 1607.759,
    "end_time": 1612.798,
    "video_id": "c30a40b3-2ae6-4e19-b59c-ca7f93a03e69",
    "profile_id": "19c47219-e31a-4208-a6db-a135cff22207",
    "latitude": 28.4245534,
    "longitude": -81.3136377,
    "created_at": "2025-12-20T16:32:16.421+00:00"
  },
  {
    "id": "e32b2a08-ecb1-409a-ac7a-f32205225d02",
    "title": "Conventions mysteries and secrets",
    "start_time": 667.278,
    "end_time": 687.958,
    "video_id": "4b264025-cc00-40d3-8b62-517ffd60d2f9",
    "profile_id": "19c47219-e31a-4208-a6db-a135cff22207",
    "latitude": 43.7992787,
    "longitude": -79.6130836,
    "created_at": "2025-12-07T18:45:33.291+00:00"
  },
  {
    "id": "f29667b9-7a1d-4d02-bf01-c2059984d111",
    "title": "Weekend reflections",
    "start_time": 643.44,
    "end_time": 668.639,
    "video_id": "9319d553-1ca4-4d68-9981-7b6b510caf1e",
    "profile_id": "19c47219-e31a-4208-a6db-a135cff22207",
    "latitude": 43.7992808,
    "longitude": -79.6131045,
    "created_at": "2025-12-08T15:26:00.372+00:00"
  },
  {
    "id": "5d45f0c8-565c-4f86-a871-9cfaf6434e6c",
    "title": "Plaque formation steps",
    "start_time": 108.319,
    "end_time": 137.039,
    "video_id": "0e6de103-3529-44c1-91b2-e9c5b3951185",
    "profile_id": "19c47219-e31a-4208-a6db-a135cff22207",
    "latitude": 28.4116677,
    "longitude": -81.316045,
    "created_at": "2025-12-20T12:41:50.229+00:00"
  },
  {
    "id": "c097371a-ca2c-4f3d-942c-dc99a2e9c989",
    "title": null,
    "start_time": 108.409,
    "end_time": 116.739,
    "video_id": "83b74153-793c-47bf-953b-d6e764ec2e12",
    "profile_id": "19c47219-e31a-4208-a6db-a135cff22207",
    "latitude": 43.9771568,
    "longitude": -79.3949476,
    "created_at": "2025-12-24T21:24:40.161+00:00"
  },
  {
    "id": "259d61cb-5688-491e-a46f-904885cc02d6",
    "title": "People codify, and remove ambiguities",
    "start_time": 796.879,
    "end_time": 834.6,
    "video_id": "89e9164d-6b66-49d1-a29a-cdd125b08b6c",
    "profile_id": "19c47219-e31a-4208-a6db-a135cff22207",
    "latitude": 35.2186142,
    "longitude": -80.9416817,
    "created_at": "2025-12-11T19:56:10.404+00:00"
  },
  {
    "id": "055bb5a5-d126-4cc2-a26d-dc63a97988b9",
    "title": null,
    "start_time": 73.04,
    "end_time": 78.319,
    "video_id": "03a54d57-514c-4a07-8f4a-958c5ea0c1c3",
    "profile_id": "19c47219-e31a-4208-a6db-a135cff22207",
    "latitude": 43.9680672,
    "longitude": -79.4364565,
    "created_at": "2025-12-24T21:23:24.598+00:00"
  },
  {
    "id": "029fb434-a101-4125-b17d-f7b7f77236cb",
    "title": "George Harrison opens the box",
    "start_time": 1278.24,
    "end_time": 1310.309,
    "video_id": "c30a40b3-2ae6-4e19-b59c-ca7f93a03e69",
    "profile_id": "19c47219-e31a-4208-a6db-a135cff22207",
    "latitude": 28.4113934,
    "longitude": -81.3174205,
    "created_at": "2025-12-20T16:32:15.449+00:00"
  },
  {
    "id": "8f81460c-dd1e-4efb-8266-5ebf95fe95d7",
    "title": "You want to explain when people misunderstand you",
    "start_time": 1528.72,
    "end_time": 1557.109,
    "video_id": "c30a40b3-2ae6-4e19-b59c-ca7f93a03e69",
    "profile_id": "19c47219-e31a-4208-a6db-a135cff22207",
    "latitude": 0,
    "longitude": 0,
    "created_at": "2025-12-20T16:32:16.099+00:00"
  },
  {
    "id": "9ccb2b6c-ef97-4546-ae4a-8752ca994c0b",
    "title": "Unteachable Lessons",
    "start_time": 6763.599,
    "end_time": 6933.029,
    "video_id": "bb17dc86-8913-4b9d-9067-a4cbeebba9d7",
    "profile_id": "19c47219-e31a-4208-a6db-a135cff22207",
    "latitude": 43.7536815,
    "longitude": -79.4782982,
    "created_at": "2025-12-10T01:50:35.972+00:00"
  },
  {
    "id": "96473396-3aa6-41a7-a77c-17adcdbf0bb4",
    "title": "Human labeling is underated",
    "start_time": 1810.079,
    "end_time": 1857.359,
    "video_id": "f69cee2e-9f90-4beb-9882-a51ee32c523f",
    "profile_id": "19c47219-e31a-4208-a6db-a135cff22207",
    "latitude": 43.7992792,
    "longitude": -79.6130945,
    "created_at": "2025-12-08T16:37:53.453+00:00"
  },
  {
    "id": "edd1c425-8d53-4e26-8ee7-00c8ab36ca9d",
    "title": "Economic drive for curicula changing",
    "start_time": 1257.119,
    "end_time": 1320.159,
    "video_id": "ff8038f8-e164-49d1-898b-8c9a46fc9538",
    "profile_id": "19c47219-e31a-4208-a6db-a135cff22207",
    "latitude": 28.4116677,
    "longitude": -81.316045,
    "created_at": "2025-12-20T13:13:28.409+00:00"
  },
  {
    "id": "63f197ef-0cd7-4037-aa32-bc6bea3d09ea",
    "title": "Sensitive Sean and John",
    "start_time": 862,
    "end_time": 880.72,
    "video_id": "c30a40b3-2ae6-4e19-b59c-ca7f93a03e69",
    "profile_id": "19c47219-e31a-4208-a6db-a135cff22207",
    "latitude": 43.6866261,
    "longitude": -79.6219613,
    "created_at": "2025-12-11T16:11:49.321+00:00"
  },
  {
    "id": "58d9bc54-ebaa-4e1c-a80b-3b81a7768a29",
    "title": "Humans come first",
    "start_time": 252.799,
    "end_time": 264.24,
    "video_id": "9319d553-1ca4-4d68-9981-7b6b510caf1e",
    "profile_id": "19c47219-e31a-4208-a6db-a135cff22207",
    "latitude": 43.7992819,
    "longitude": -79.6131075,
    "created_at": "2025-12-08T15:21:16.701+00:00"
  },
  {
    "id": "2164ddc5-8c59-40f6-81e7-a5ca51a537fc",
    "title": "Salmon & Sardines",
    "start_time": 412.959,
    "end_time": 424.478,
    "video_id": "0e6de103-3529-44c1-91b2-e9c5b3951185",
    "profile_id": "19c47219-e31a-4208-a6db-a135cff22207",
    "latitude": 28.4116677,
    "longitude": -81.316045,
    "created_at": "2025-12-20T12:48:11.449+00:00"
  },
  {
    "id": "9a9928e0-62ee-4bd8-9f95-b162a80a33a0",
    "title": "Google Mission",
    "start_time": 8.08,
    "end_time": 14.48,
    "video_id": "f05cc67a-b47a-48f6-8581-5d27d4d29fcb",
    "profile_id": "19c47219-e31a-4208-a6db-a135cff22207",
    "latitude": 43.7929107,
    "longitude": -79.6149415,
    "created_at": "2025-12-02T16:22:27.957+00:00"
  },
  {
    "id": "2b542748-74e7-4819-8275-982938c3c523",
    "title": "Highspeed rail is dumb",
    "start_time": 265.079,
    "end_time": 275.6,
    "video_id": "89e9164d-6b66-49d1-a29a-cdd125b08b6c",
    "profile_id": "19c47219-e31a-4208-a6db-a135cff22207",
    "latitude": 35.2187439,
    "longitude": -80.9434094,
    "created_at": "2025-12-11T19:50:57.284+00:00"
  },
  {
    "id": "2eea57b0-6aac-4d1d-beb2-94ec118f2f31",
    "title": "Women want to know what its like to be a mans mind and vice versa",
    "start_time": 3472.96,
    "end_time": 3507.909,
    "video_id": "c30a40b3-2ae6-4e19-b59c-ca7f93a03e69",
    "profile_id": "19c47219-e31a-4208-a6db-a135cff22207",
    "latitude": 0,
    "longitude": 0,
    "created_at": "2025-12-20T16:32:18.452+00:00"
  },
  {
    "id": "6a627f79-dd32-4458-b05e-f390ca8d22ed",
    "title": "Knowledge evolved philosophy",
    "start_time": 8410,
    "end_time": 8421.12,
    "video_id": "bb17dc86-8913-4b9d-9067-a4cbeebba9d7",
    "profile_id": "19c47219-e31a-4208-a6db-a135cff22207",
    "latitude": 43.7422486,
    "longitude": -79.4572039,
    "created_at": "2025-12-10T13:12:30.353+00:00"
  },
  {
    "id": "ea64a347-2f5f-4cc3-8e35-2837892cb7df",
    "title": null,
    "start_time": 835.889,
    "end_time": 894.5,
    "video_id": "83b74153-793c-47bf-953b-d6e764ec2e12",
    "profile_id": "19c47219-e31a-4208-a6db-a135cff22207",
    "latitude": 44.0363834,
    "longitude": -79.3051163,
    "created_at": "2025-12-24T21:36:58.116+00:00"
  },
  {
    "id": "f70a013e-f5d6-4fb1-b2a8-af20e0e8e721",
    "title": "Start narrow, but need platfrom goal",
    "start_time": 408.879,
    "end_time": 446.149,
    "video_id": "debbf99c-54d4-405f-acaa-738499dd07cf",
    "profile_id": "19c47219-e31a-4208-a6db-a135cff22207",
    "latitude": 43.7992525,
    "longitude": -79.6131133,
    "created_at": "2025-12-07T18:20:22.441+00:00"
  },
  {
    "id": "fdcaa243-ff2f-44b1-bc6b-5b01d9384ab4",
    "title": "My Stank",
    "start_time": 2410.4,
    "end_time": 2434.4,
    "video_id": "0e235d6d-d930-4b3b-9e25-f49ded9f8883",
    "profile_id": "19c47219-e31a-4208-a6db-a135cff22207",
    "latitude": 43.7992719,
    "longitude": -79.6130667,
    "created_at": "2025-12-08T20:57:21.053+00:00"
  },
  {
    "id": "093b0ff2-b19d-411b-b412-8dfbd44a0127",
    "title": "Level 4 leads to cities; but is rigid",
    "start_time": 1021.6,
    "end_time": 1066,
    "video_id": "9350aa85-5c02-4f0b-9bef-2f3fd67bb58e",
    "profile_id": "19c47219-e31a-4208-a6db-a135cff22207",
    "latitude": 43.6866261,
    "longitude": -79.6219613,
    "created_at": "2025-12-11T16:33:35.418+00:00"
  },
  {
    "id": "f6e5f495-fcb3-49e9-b4b5-1cdcc97be555",
    "title": "Micro communism, macro libertarian",
    "start_time": 8754.239,
    "end_time": 8766.159,
    "video_id": "bb17dc86-8913-4b9d-9067-a4cbeebba9d7",
    "profile_id": "19c47219-e31a-4208-a6db-a135cff22207",
    "latitude": 43.7348168,
    "longitude": -79.4505231,
    "created_at": "2025-12-10T13:16:36.056+00:00"
  },
  {
    "id": "3e772315-d14f-4925-aac8-aff337df9b1c",
    "title": "Cryotherapy is temporary",
    "start_time": 289.04,
    "end_time": 311.839,
    "video_id": "627c3a87-65fb-4c7b-819f-fa4c63f37811",
    "profile_id": "19c47219-e31a-4208-a6db-a135cff22207",
    "latitude": 35.2180108,
    "longitude": -80.9427183,
    "created_at": "2025-12-11T19:47:08.465+00:00"
  },
  {
    "id": "c5e165e2-da42-4604-bc0b-a6ad601570ab",
    "title": "Norm's Moth Joke",
    "start_time": 4048.559,
    "end_time": 4162.319,
    "video_id": "0e235d6d-d930-4b3b-9e25-f49ded9f8883",
    "profile_id": "19c47219-e31a-4208-a6db-a135cff22207",
    "latitude": 43.7992719,
    "longitude": -79.6130667,
    "created_at": "2025-12-08T21:14:07.625+00:00"
  },
  {
    "id": "c259b330-e379-4807-a838-c8a6e766a481",
    "title": "Songs that make you giggle",
    "start_time": 1062.72,
    "end_time": 1183.519,
    "video_id": "6480b574-a065-45d5-8ca1-009d4e433f33",
    "profile_id": "19c47219-e31a-4208-a6db-a135cff22207",
    "latitude": 43.7993285,
    "longitude": -79.6130959,
    "created_at": "2025-12-08T16:58:20.636+00:00"
  },
  {
    "id": "114d0d95-4b4c-403d-a70d-e7367921ce0e",
    "title": "Understanding in your bones beats discipline",
    "start_time": 6526.56,
    "end_time": 6573.029,
    "video_id": "bb17dc86-8913-4b9d-9067-a4cbeebba9d7",
    "profile_id": "19c47219-e31a-4208-a6db-a135cff22207",
    "latitude": 43.7432022,
    "longitude": -79.4579072,
    "created_at": "2025-12-10T01:47:20.45+00:00"
  },
  {
    "id": "dcdefbb2-0dad-4773-90e8-a6ed7ac77a90",
    "title": null,
    "start_time": 659.44,
    "end_time": 670.559,
    "video_id": "0e235d6d-d930-4b3b-9e25-f49ded9f8883",
    "profile_id": "19c47219-e31a-4208-a6db-a135cff22207",
    "latitude": 43.7992719,
    "longitude": -79.6130667,
    "created_at": "2025-12-08T20:39:33.475+00:00"
  },
  {
    "id": "03255441-d3dc-40c2-ae7b-085e1e7173a3",
    "title": "Greatness is communicated in everything you do",
    "start_time": 1478.319,
    "end_time": 1583.679,
    "video_id": "6480b574-a065-45d5-8ca1-009d4e433f33",
    "profile_id": "19c47219-e31a-4208-a6db-a135cff22207",
    "latitude": 43.7993285,
    "longitude": -79.6130959,
    "created_at": "2025-12-08T17:01:56.943+00:00"
  },
  {
    "id": "91a5f0e1-c2db-42f6-9f0e-1fe078bb16a7",
    "title": "Need platforms",
    "start_time": 370.079,
    "end_time": 392.79,
    "video_id": "debbf99c-54d4-405f-acaa-738499dd07cf",
    "profile_id": "19c47219-e31a-4208-a6db-a135cff22207",
    "latitude": 43.7992525,
    "longitude": -79.6131133,
    "created_at": "2025-12-07T18:19:15.603+00:00"
  },
  {
    "id": "9de5e394-0981-44ff-b5b1-c87a218d3160",
    "title": null,
    "start_time": 1452.4,
    "end_time": 1508.23,
    "video_id": "c30a40b3-2ae6-4e19-b59c-ca7f93a03e69",
    "profile_id": "19c47219-e31a-4208-a6db-a135cff22207",
    "latitude": 0,
    "longitude": 0,
    "created_at": "2025-12-20T16:32:15.984+00:00"
  },
  {
    "id": "7a7c5f45-cf79-4650-aff1-c07c8f055427",
    "title": "Photographing Urge",
    "start_time": 1024.959,
    "end_time": 1084,
    "video_id": "89e9164d-6b66-49d1-a29a-cdd125b08b6c",
    "profile_id": "19c47219-e31a-4208-a6db-a135cff22207",
    "latitude": 35.2186142,
    "longitude": -80.9416817,
    "created_at": "2025-12-11T19:57:15.237+00:00"
  },
  {
    "id": "308c7093-b789-4cca-9d63-b07055ade874",
    "title": "Status is 0 sum, wealth creation is positve sum ",
    "start_time": 922,
    "end_time": 1075.509,
    "video_id": "bb17dc86-8913-4b9d-9067-a4cbeebba9d7",
    "profile_id": "19c47219-e31a-4208-a6db-a135cff22207",
    "latitude": 43.6475062,
    "longitude": -79.3850953,
    "created_at": "2025-12-10T01:14:47.339+00:00"
  },
  {
    "id": "6c6de7eb-0db2-4330-b5d1-0b0986c7cb29",
    "title": "Feeling seen in your room",
    "start_time": 643.679,
    "end_time": 683.278,
    "video_id": "6480b574-a065-45d5-8ca1-009d4e433f33",
    "profile_id": "19c47219-e31a-4208-a6db-a135cff22207",
    "latitude": 43.7992918,
    "longitude": -79.6130824,
    "created_at": "2025-12-08T16:54:04.338+00:00"
  },
  {
    "id": "3eb64109-660e-4ae7-8652-7843a4ded20f",
    "title": "Short term pain",
    "start_time": 5961.279,
    "end_time": 5993.029,
    "video_id": "bb17dc86-8913-4b9d-9067-a4cbeebba9d7",
    "profile_id": "19c47219-e31a-4208-a6db-a135cff22207",
    "latitude": 43.7152394,
    "longitude": -79.4438417,
    "created_at": "2025-12-10T01:37:15.802+00:00"
  },
  {
    "id": "61da5641-0750-4a41-b37e-54c1b99b3755",
    "title": null,
    "start_time": 999.12,
    "end_time": 1005.039,
    "video_id": "c30a40b3-2ae6-4e19-b59c-ca7f93a03e69",
    "profile_id": "19c47219-e31a-4208-a6db-a135cff22207",
    "latitude": 28.4116677,
    "longitude": -81.316045,
    "created_at": "2025-12-20T16:32:12.633+00:00"
  },
  {
    "id": "bc335a37-ed7e-4a12-bc2d-3624a87b61c6",
    "title": null,
    "start_time": 1278.24,
    "end_time": 1293.75,
    "video_id": "c30a40b3-2ae6-4e19-b59c-ca7f93a03e69",
    "profile_id": "19c47219-e31a-4208-a6db-a135cff22207",
    "latitude": 28.4113934,
    "longitude": -81.3174205,
    "created_at": "2025-12-20T16:32:15.3+00:00"
  },
  {
    "id": "9540827f-6773-44f9-878b-0803258e541a",
    "title": "Virus damage over lifetime is underrated",
    "start_time": 10038.478,
    "end_time": 10075.359,
    "video_id": "bb17dc86-8913-4b9d-9067-a4cbeebba9d7",
    "profile_id": "19c47219-e31a-4208-a6db-a135cff22207",
    "latitude": 43.6897334,
    "longitude": -79.4213325,
    "created_at": "2025-12-10T13:30:18.755+00:00"
  },
  {
    "id": "10a73aac-9c3e-4511-a9c1-3ac4d456e6f2",
    "title": "Create life with people",
    "start_time": 2184.96,
    "end_time": 2203.108,
    "video_id": "c30a40b3-2ae6-4e19-b59c-ca7f93a03e69",
    "profile_id": "19c47219-e31a-4208-a6db-a135cff22207",
    "latitude": 0,
    "longitude": 0,
    "created_at": "2025-12-20T16:32:16.828+00:00"
  },
  {
    "id": "362d1e21-82b4-4109-ad3c-f8d926249d4d",
    "title": "John works on whiteboard",
    "start_time": 1817.038,
    "end_time": 1880.96,
    "video_id": "c30a40b3-2ae6-4e19-b59c-ca7f93a03e69",
    "profile_id": "19c47219-e31a-4208-a6db-a135cff22207",
    "latitude": 28.4159125,
    "longitude": -81.2974728,
    "created_at": "2025-12-20T16:32:16.543+00:00"
  },
  {
    "id": "abc80a09-4fdd-4a5e-967f-81702a0352e5",
    "title": "Devlop the developed world",
    "start_time": 1055.038,
    "end_time": 1062.99,
    "video_id": "4b264025-cc00-40d3-8b62-517ffd60d2f9",
    "profile_id": "19c47219-e31a-4208-a6db-a135cff22207",
    "latitude": 43.7992787,
    "longitude": -79.6130836,
    "created_at": "2025-12-07T18:49:30.738+00:00"
  },
  {
    "id": "6972731c-13c5-498a-9757-831addc990f4",
    "title": "Capatalism and monopoly",
    "start_time": 122.799,
    "end_time": 283.56,
    "video_id": "4b264025-cc00-40d3-8b62-517ffd60d2f9",
    "profile_id": "19c47219-e31a-4208-a6db-a135cff22207",
    "latitude": 43.7992787,
    "longitude": -79.6130836,
    "created_at": "2025-12-07T18:41:47.745+00:00"
  },
  {
    "id": "9e9acf01-4db9-47db-b8ab-9ea441908e7a",
    "title": null,
    "start_time": 166.239,
    "end_time": 195.588,
    "video_id": "adcb9f8d-362c-4a5f-884b-75653471ac3e",
    "profile_id": "19c47219-e31a-4208-a6db-a135cff22207",
    "latitude": 43.8171654,
    "longitude": -79.5987939,
    "created_at": "2025-12-24T20:55:45.491+00:00"
  },
  {
    "id": "4e3ad95e-86c9-47a2-b85f-7a5dd23a752a",
    "title": "Hard to be the 'excited cultrual wave'",
    "start_time": 44.799,
    "end_time": 120.478,
    "video_id": "c30a40b3-2ae6-4e19-b59c-ca7f93a03e69",
    "profile_id": "19c47219-e31a-4208-a6db-a135cff22207",
    "latitude": 43.6866261,
    "longitude": -79.6219613,
    "created_at": "2025-12-11T16:02:34.597+00:00"
  },
  {
    "id": "820247cf-630e-43c1-b7ce-da57ea60ebb0",
    "title": null,
    "start_time": 265.04,
    "end_time": 268.639,
    "video_id": "e716b92c-c248-48b0-af76-f1ee8b0bffde",
    "profile_id": "19c47219-e31a-4208-a6db-a135cff22207",
    "latitude": 43.7993035,
    "longitude": -79.6130842,
    "created_at": "2025-12-01T21:04:20.067+00:00"
  },
  {
    "id": "b8b990f9-8485-40ff-9039-1a06e2c3592a",
    "title": "Texture",
    "start_time": 1559.038,
    "end_time": 1605.278,
    "video_id": "c30a40b3-2ae6-4e19-b59c-ca7f93a03e69",
    "profile_id": "19c47219-e31a-4208-a6db-a135cff22207",
    "latitude": 28.4245534,
    "longitude": -81.3136377,
    "created_at": "2025-12-20T16:32:16.263+00:00"
  },
  {
    "id": "590faf17-548d-4ad9-90e5-718c663ba4f0",
    "title": null,
    "start_time": 769.2,
    "end_time": 778.47,
    "video_id": "debbf99c-54d4-405f-acaa-738499dd07cf",
    "profile_id": "19c47219-e31a-4208-a6db-a135cff22207",
    "latitude": 43.7992926,
    "longitude": -79.6131064,
    "created_at": "2025-12-07T18:25:37.434+00:00"
  },
  {
    "id": "1ec91c9a-7c5c-4a06-859a-55b204826e60",
    "title": "Insanity vaccine",
    "start_time": 2710,
    "end_time": 2798.8,
    "video_id": "6480b574-a065-45d5-8ca1-009d4e433f33",
    "profile_id": "19c47219-e31a-4208-a6db-a135cff22207",
    "latitude": 43.7992957,
    "longitude": -79.6130908,
    "created_at": "2025-12-08T17:15:04.33+00:00"
  },
  {
    "id": "c8c86c7f-ca1e-4828-a404-2647c842593b",
    "title": "Quick to learn, hard to kill",
    "start_time": 10217.76,
    "end_time": 10222.139,
    "video_id": "bb17dc86-8913-4b9d-9067-a4cbeebba9d7",
    "profile_id": "19c47219-e31a-4208-a6db-a135cff22207",
    "latitude": 43.6897334,
    "longitude": -79.4213325,
    "created_at": "2025-12-10T13:32:18.549+00:00"
  },
  {
    "id": "aa0a14d2-ef32-439f-91b7-87b95d0abfef",
    "title": "Authenticity for your old self",
    "start_time": 2804.8,
    "end_time": 2829.51,
    "video_id": "c30a40b3-2ae6-4e19-b59c-ca7f93a03e69",
    "profile_id": "19c47219-e31a-4208-a6db-a135cff22207",
    "latitude": 0,
    "longitude": 0,
    "created_at": "2025-12-20T16:32:17.675+00:00"
  },
  {
    "id": "dd0d74cb-437a-4e35-9c97-f26535c02cee",
    "title": "Rachel and Raymond",
    "start_time": 2753.579,
    "end_time": 2814.518,
    "video_id": "0fdb9971-ad0d-495b-b6d7-38cdbf408b93",
    "profile_id": "19c47219-e31a-4208-a6db-a135cff22207",
    "latitude": 35.2190326,
    "longitude": -80.9427183,
    "created_at": "2025-12-11T19:36:54.347+00:00"
  },
  {
    "id": "64559ce1-300a-4951-87cc-71722a56a9f7",
    "title": "Stress comes from conflicting desires",
    "start_time": 4913.52,
    "end_time": 4934.639,
    "video_id": "bb17dc86-8913-4b9d-9067-a4cbeebba9d7",
    "profile_id": "19c47219-e31a-4208-a6db-a135cff22207",
    "latitude": 43.6907538,
    "longitude": -79.4227395,
    "created_at": "2025-12-10T01:28:07.55+00:00"
  },
  {
    "id": "53e7855e-4aef-43bd-a830-9acd9accb56a",
    "title": "Princess cool in another castle",
    "start_time": 1321.038,
    "end_time": 1357.829,
    "video_id": "6480b574-a065-45d5-8ca1-009d4e433f33",
    "profile_id": "19c47219-e31a-4208-a6db-a135cff22207",
    "latitude": 43.7993285,
    "longitude": -79.6130959,
    "created_at": "2025-12-08T17:00:08.347+00:00"
  },
  {
    "id": "34d4b3dc-393a-41e8-b866-27acd753cdab",
    "title": "Dont do things you dont want to do",
    "start_time": 2415.599,
    "end_time": 2460.48,
    "video_id": "bb17dc86-8913-4b9d-9067-a4cbeebba9d7",
    "profile_id": "19c47219-e31a-4208-a6db-a135cff22207",
    "latitude": 43.6747517,
    "longitude": -79.4069097,
    "created_at": "2025-12-09T13:27:07.438+00:00"
  },
  {
    "id": "aede0d26-3f1b-4b08-8e81-b167bdf487b3",
    "title": "Kids blues",
    "start_time": 2970.4,
    "end_time": 3048.548,
    "video_id": "0e235d6d-d930-4b3b-9e25-f49ded9f8883",
    "profile_id": "19c47219-e31a-4208-a6db-a135cff22207",
    "latitude": 43.7992719,
    "longitude": -79.6130667,
    "created_at": "2025-12-08T21:04:01.612+00:00"
  },
  {
    "id": "35511a9e-6fa7-4bc7-b743-15b28ba429f5",
    "title": "I am not my mind",
    "start_time": 1510.558,
    "end_time": 1623.44,
    "video_id": "cbf1e53e-cde1-410d-adab-3b98ec7ac11a",
    "profile_id": "19c47219-e31a-4208-a6db-a135cff22207",
    "latitude": 43.6852411,
    "longitude": -79.6191906,
    "created_at": "2025-12-20T17:01:56.484+00:00"
  },
  {
    "id": "bab0deb6-26be-412d-9ff6-13f1939234d3",
    "title": "Stakes are low",
    "start_time": 2719.599,
    "end_time": 2800.389,
    "video_id": "0e235d6d-d930-4b3b-9e25-f49ded9f8883",
    "profile_id": "19c47219-e31a-4208-a6db-a135cff22207",
    "latitude": 43.7992719,
    "longitude": -79.6130667,
    "created_at": "2025-12-08T21:01:10.615+00:00"
  },
  {
    "id": "6143ae8f-51d6-4f6e-88e6-14f6e0ba18a0",
    "title": "Hide out in specs",
    "start_time": 171.36,
    "end_time": 270.069,
    "video_id": "c30a40b3-2ae6-4e19-b59c-ca7f93a03e69",
    "profile_id": "19c47219-e31a-4208-a6db-a135cff22207",
    "latitude": 43.6866261,
    "longitude": -79.6219613,
    "created_at": "2025-12-11T16:04:32.918+00:00"
  },
  {
    "id": "3141756d-6d55-4977-908c-6eb4b1eac124",
    "title": "Micro needling",
    "start_time": 302.16,
    "end_time": 331.36,
    "video_id": "d3288c5c-aab5-48b1-9ea7-3c8e05042fb4",
    "profile_id": "19c47219-e31a-4208-a6db-a135cff22207",
    "latitude": 35.1974197,
    "longitude": -80.9361528,
    "created_at": "2025-12-11T20:08:09.793+00:00"
  },
  {
    "id": "a3b19e06-1ccf-47af-9459-7821a1bc19a5",
    "title": "Startups ran by aspergers",
    "start_time": 478.158,
    "end_time": 552.6,
    "video_id": "4b264025-cc00-40d3-8b62-517ffd60d2f9",
    "profile_id": "19c47219-e31a-4208-a6db-a135cff22207",
    "latitude": 43.7992787,
    "longitude": -79.6130836,
    "created_at": "2025-12-07T18:44:28.38+00:00"
  },
  {
    "id": "25ddf7c6-3f1b-486b-91bc-6bb6432713af",
    "title": "Voting and power",
    "start_time": 10476.318,
    "end_time": 10633.84,
    "video_id": "bb17dc86-8913-4b9d-9067-a4cbeebba9d7",
    "profile_id": "19c47219-e31a-4208-a6db-a135cff22207",
    "latitude": 43.6704367,
    "longitude": -79.4051507,
    "created_at": "2025-12-10T13:36:32.16+00:00"
  },
  {
    "id": "e9107762-e99d-4a4a-a187-ce263fe98397",
    "title": "If you are so smart why are you unhappy",
    "start_time": 1966.319,
    "end_time": 1979.839,
    "video_id": "bb17dc86-8913-4b9d-9067-a4cbeebba9d7",
    "profile_id": "19c47219-e31a-4208-a6db-a135cff22207",
    "latitude": 43.6897334,
    "longitude": -79.4213325,
    "created_at": "2025-12-09T13:22:53.418+00:00"
  },
  {
    "id": "418825f5-edd9-4520-b9be-85e56197975a",
    "title": "Dog shit",
    "start_time": 453.199,
    "end_time": 496,
    "video_id": "9350aa85-5c02-4f0b-9bef-2f3fd67bb58e",
    "profile_id": "19c47219-e31a-4208-a6db-a135cff22207",
    "latitude": 43.6866261,
    "longitude": -79.6219613,
    "created_at": "2025-12-11T16:26:57.879+00:00"
  },
  {
    "id": "863eaa6d-daec-4c8d-b73a-c45998abe096",
    "title": null,
    "start_time": 4549.84,
    "end_time": 4550,
    "video_id": "6480b574-a065-45d5-8ca1-009d4e433f33",
    "profile_id": "19c47219-e31a-4208-a6db-a135cff22207",
    "latitude": 43.7992815,
    "longitude": -79.6130872,
    "created_at": "2025-12-08T20:17:19.212+00:00"
  },
  {
    "id": "838d4056-fede-48b5-839a-a3359ff52d2b",
    "title": "Great entrepreneurs are not afraid to reset",
    "start_time": 1865.919,
    "end_time": 1868.558,
    "video_id": "bb17dc86-8913-4b9d-9067-a4cbeebba9d7",
    "profile_id": "19c47219-e31a-4208-a6db-a135cff22207",
    "latitude": 43.6974352,
    "longitude": -79.4308293,
    "created_at": "2025-12-09T13:21:53.447+00:00"
  },
  {
    "id": "42ecb113-2c62-4443-ac41-96289c00373f",
    "title": "Sodium osmotic load",
    "start_time": 37.92,
    "end_time": 60.079,
    "video_id": "627c3a87-65fb-4c7b-819f-fa4c63f37811",
    "profile_id": "19c47219-e31a-4208-a6db-a135cff22207",
    "latitude": 35.2186142,
    "longitude": -80.9416817,
    "created_at": "2025-12-11T19:44:54.684+00:00"
  },
  {
    "id": "729c3279-2db9-4236-a0c4-db7cfa10bcf5",
    "title": "Change states of matter",
    "start_time": 2466.4,
    "end_time": 2484.88,
    "video_id": "c30a40b3-2ae6-4e19-b59c-ca7f93a03e69",
    "profile_id": "19c47219-e31a-4208-a6db-a135cff22207",
    "latitude": 0,
    "longitude": 0,
    "created_at": "2025-12-20T16:32:17.425+00:00"
  },
  {
    "id": "089099bc-9854-4d48-9a99-c1ce3bb93934",
    "title": "Holding the line",
    "start_time": 2817.44,
    "end_time": 2961.599,
    "video_id": "6480b574-a065-45d5-8ca1-009d4e433f33",
    "profile_id": "19c47219-e31a-4208-a6db-a135cff22207",
    "latitude": 43.7992879,
    "longitude": -79.6131009,
    "created_at": "2025-12-08T19:14:49.259+00:00"
  },
  {
    "id": "468942db-f160-4717-8d23-d124e138b31f",
    "title": "Life in motion",
    "start_time": 815.2,
    "end_time": 871.919,
    "video_id": "9319d553-1ca4-4d68-9981-7b6b510caf1e",
    "profile_id": "19c47219-e31a-4208-a6db-a135cff22207",
    "latitude": 43.7992872,
    "longitude": -79.6130928,
    "created_at": "2025-12-08T15:28:33.872+00:00"
  },
  {
    "id": "ac679603-d9dd-41be-bea7-31dca5c33f60",
    "title": "Hurt and be hurt",
    "start_time": 3128.079,
    "end_time": 3134.469,
    "video_id": "c30a40b3-2ae6-4e19-b59c-ca7f93a03e69",
    "profile_id": "19c47219-e31a-4208-a6db-a135cff22207",
    "latitude": 0,
    "longitude": 0,
    "created_at": "2025-12-20T16:32:17.912+00:00"
  },
  {
    "id": "882d62d3-5ed3-4e2f-a8d4-56ac26b47aad",
    "title": "What is ignroed by media, but studieed by historians",
    "start_time": 10753.04,
    "end_time": 10760.149,
    "video_id": "bb17dc86-8913-4b9d-9067-a4cbeebba9d7",
    "profile_id": "19c47219-e31a-4208-a6db-a135cff22207",
    "latitude": 43.6683953,
    "longitude": -79.3991697,
    "created_at": "2025-12-10T13:37:47.657+00:00"
  },
  {
    "id": "3630c858-8c64-4779-889d-23760c066013",
    "title": "Expand helping circle",
    "start_time": 11575.68,
    "end_time": 11676.228,
    "video_id": "bb17dc86-8913-4b9d-9067-a4cbeebba9d7",
    "profile_id": "19c47219-e31a-4208-a6db-a135cff22207",
    "latitude": 0,
    "longitude": 0,
    "created_at": "2025-12-10T13:47:27.516+00:00"
  },
  {
    "id": "c5d680f3-cdb0-4efc-9936-8aa0a2dfe4e1",
    "title": "Make Stage same level as ground",
    "start_time": 2485.119,
    "end_time": 2493.19,
    "video_id": "c30a40b3-2ae6-4e19-b59c-ca7f93a03e69",
    "profile_id": "19c47219-e31a-4208-a6db-a135cff22207",
    "latitude": 0,
    "longitude": 0,
    "created_at": "2025-12-20T16:32:17.568+00:00"
  },
  {
    "id": "3a980ade-4e3f-4754-8fda-c14f570ad17c",
    "title": "Plane gini joke",
    "start_time": 22.039,
    "end_time": 107.799,
    "video_id": "89e9164d-6b66-49d1-a29a-cdd125b08b6c",
    "profile_id": "19c47219-e31a-4208-a6db-a135cff22207",
    "latitude": 35.2180108,
    "longitude": -80.9427183,
    "created_at": "2025-12-11T19:48:15.319+00:00"
  },
  {
    "id": "3215868b-cfdb-4df4-b6dd-68967e59ea48",
    "title": "Spokesperson for yourself",
    "start_time": 3406.159,
    "end_time": 3442.318,
    "video_id": "c30a40b3-2ae6-4e19-b59c-ca7f93a03e69",
    "profile_id": "19c47219-e31a-4208-a6db-a135cff22207",
    "latitude": 0,
    "longitude": 0,
    "created_at": "2025-12-20T16:32:18.337+00:00"
  },
  {
    "id": "9fca6728-4f0f-42d1-a335-f53d35e6a138",
    "title": "Diogenes does not want to be socrates",
    "start_time": 21.278,
    "end_time": 73.92,
    "video_id": "bb17dc86-8913-4b9d-9067-a4cbeebba9d7",
    "profile_id": "19c47219-e31a-4208-a6db-a135cff22207",
    "latitude": 0,
    "longitude": 0,
    "created_at": "2025-12-09T13:02:23.617+00:00"
  },
  {
    "id": "58a897f4-9916-4307-af69-d6e0409b9a14",
    "title": "Science starts at 2, no science to business",
    "start_time": 6.16,
    "end_time": 75.64,
    "video_id": "4b264025-cc00-40d3-8b62-517ffd60d2f9",
    "profile_id": "19c47219-e31a-4208-a6db-a135cff22207",
    "latitude": 43.7992787,
    "longitude": -79.6130836,
    "created_at": "2025-12-07T18:40:09.522+00:00"
  },
  {
    "id": "070d1b4f-d5b3-44c7-90e4-49aa234beaa2",
    "title": "Union of opposites",
    "start_time": 1290.558,
    "end_time": 1331.759,
    "video_id": "89e9164d-6b66-49d1-a29a-cdd125b08b6c",
    "profile_id": "19c47219-e31a-4208-a6db-a135cff22207",
    "latitude": 35.2186142,
    "longitude": -80.9416817,
    "created_at": "2025-12-11T19:59:27.427+00:00"
  },
  {
    "id": "623caf39-d5fc-43de-9647-2d9c6fa41be3",
    "title": "Intelligence is do you get what you want out of life",
    "start_time": 3352.318,
    "end_time": 3390.559,
    "video_id": "bb17dc86-8913-4b9d-9067-a4cbeebba9d7",
    "profile_id": "19c47219-e31a-4208-a6db-a135cff22207",
    "latitude": 43.6546242,
    "longitude": -79.3882622,
    "created_at": "2025-12-09T13:36:28.533+00:00"
  },
  {
    "id": "a2896c0c-631c-4ff4-ba4c-25db01315e69",
    "title": "Specificity vs abstract advice",
    "start_time": 8174.719,
    "end_time": 8197.75,
    "video_id": "bb17dc86-8913-4b9d-9067-a4cbeebba9d7",
    "profile_id": "19c47219-e31a-4208-a6db-a135cff22207",
    "latitude": 43.7432022,
    "longitude": -79.4579072,
    "created_at": "2025-12-10T13:10:05.506+00:00"
  },
  {
    "id": "6e941220-98dc-49e1-b705-2434732ff7cc",
    "title": "Primate means immitate",
    "start_time": 583.958,
    "end_time": 625.72,
    "video_id": "4b264025-cc00-40d3-8b62-517ffd60d2f9",
    "profile_id": "19c47219-e31a-4208-a6db-a135cff22207",
    "latitude": 43.7992787,
    "longitude": -79.6130836,
    "created_at": "2025-12-07T18:45:03.228+00:00"
  },
  {
    "id": "8ae3616c-e0cb-4c8a-8b6b-9eee63636918",
    "title": "Merry Little Christmas is Sarcastic",
    "start_time": 3542.719,
    "end_time": 3652.789,
    "video_id": "6480b574-a065-45d5-8ca1-009d4e433f33",
    "profile_id": "19c47219-e31a-4208-a6db-a135cff22207",
    "latitude": 43.799284,
    "longitude": -79.6130946,
    "created_at": "2025-12-08T19:22:09.691+00:00"
  },
  {
    "id": "b2ec430d-4663-4bdd-ba4d-e4b3cf7337e0",
    "title": "Stand in the middle of the boat",
    "start_time": 3797.599,
    "end_time": 3799.108,
    "video_id": "c30a40b3-2ae6-4e19-b59c-ca7f93a03e69",
    "profile_id": "19c47219-e31a-4208-a6db-a135cff22207",
    "latitude": 0,
    "longitude": 0,
    "created_at": "2025-12-20T16:32:18.794+00:00"
  },
  {
    "id": "8463ac04-880a-482e-baf7-0e8915e5e5e1",
    "title": "Humanity produces disagreable dreamers",
    "start_time": 690.24,
    "end_time": 723.509,
    "video_id": "debbf99c-54d4-405f-acaa-738499dd07cf",
    "profile_id": "19c47219-e31a-4208-a6db-a135cff22207",
    "latitude": 43.7992709,
    "longitude": -79.6131245,
    "created_at": "2025-12-07T18:24:47.301+00:00"
  },
  {
    "id": "18839a6a-e9ff-4f16-8594-bd8e45e6eea7",
    "title": "I am collection of ideas before person",
    "start_time": 4315.76,
    "end_time": 4395.76,
    "video_id": "6480b574-a065-45d5-8ca1-009d4e433f33",
    "profile_id": "19c47219-e31a-4208-a6db-a135cff22207",
    "latitude": 43.799284,
    "longitude": -79.6130946,
    "created_at": "2025-12-08T19:29:49.079+00:00"
  },
  {
    "id": "066398cc-d490-4db0-b74f-446a9e19262a",
    "title": null,
    "start_time": 51.179,
    "end_time": 79.649,
    "video_id": "0fdb9971-ad0d-495b-b6d7-38cdbf408b93",
    "profile_id": "19c47219-e31a-4208-a6db-a135cff22207",
    "latitude": 43.6923711,
    "longitude": -79.6556488,
    "created_at": "2025-12-11T17:04:16.307+00:00"
  },
  {
    "id": "7800aee8-512e-4094-a797-951e48264d47",
    "title": "Aged garlic extract",
    "start_time": 619.519,
    "end_time": 638.639,
    "video_id": "0e6de103-3529-44c1-91b2-e9c5b3951185",
    "profile_id": "19c47219-e31a-4208-a6db-a135cff22207",
    "latitude": 28.4116677,
    "longitude": -81.316045,
    "created_at": "2025-12-20T12:52:08.395+00:00"
  },
  {
    "id": "3f722368-81e5-4b38-bf16-5aaf5c7b2144",
    "title": null,
    "start_time": 405.038,
    "end_time": 421.598,
    "video_id": "d3288c5c-aab5-48b1-9ea7-3c8e05042fb4",
    "profile_id": "19c47219-e31a-4208-a6db-a135cff22207",
    "latitude": 35.1913983,
    "longitude": -80.9603387,
    "created_at": "2025-12-11T20:09:08.382+00:00"
  },
  {
    "id": "6a4d7c45-91dd-4baa-bf5d-6f894ca3a281",
    "title": "All ends are new beginings",
    "start_time": 2506.559,
    "end_time": 2648.079,
    "video_id": "6480b574-a065-45d5-8ca1-009d4e433f33",
    "profile_id": "19c47219-e31a-4208-a6db-a135cff22207",
    "latitude": 43.7992426,
    "longitude": -79.6130895,
    "created_at": "2025-12-08T17:14:11.885+00:00"
  },
  {
    "id": "3b9736a6-5883-4ffb-86f9-2579d146fdee",
    "title": null,
    "start_time": 51.52,
    "end_time": 52.159,
    "video_id": "4b264025-cc00-40d3-8b62-517ffd60d2f9",
    "profile_id": "19c47219-e31a-4208-a6db-a135cff22207",
    "latitude": 43.8126443,
    "longitude": -79.616127,
    "created_at": "2025-12-24T20:52:19.276+00:00"
  },
  {
    "id": "ab0e4f14-423d-4785-8d44-14e1f2a94d2a",
    "title": "Love and math",
    "start_time": 94.719,
    "end_time": 119.269,
    "video_id": "debbf99c-54d4-405f-acaa-738499dd07cf",
    "profile_id": "19c47219-e31a-4208-a6db-a135cff22207",
    "latitude": 43.7992873,
    "longitude": -79.6131159,
    "created_at": "2025-12-07T18:11:39.415+00:00"
  },
  {
    "id": "19d107ac-68f2-4fb8-9d29-b33d9a08279a",
    "title": "Becoming a flight attendant",
    "start_time": 1015.87,
    "end_time": 1031.619,
    "video_id": "0fdb9971-ad0d-495b-b6d7-38cdbf408b93",
    "profile_id": "19c47219-e31a-4208-a6db-a135cff22207",
    "latitude": 35.2190326,
    "longitude": -80.9427183,
    "created_at": "2025-12-11T19:32:45.562+00:00"
  },
  {
    "id": "9eb47fab-aa5e-4889-80ae-dbf64e53341d",
    "title": null,
    "start_time": 70.28,
    "end_time": 136,
    "video_id": "90e99714-0db1-4f3b-9c1a-f6263e9b22e9",
    "profile_id": "19c47219-e31a-4208-a6db-a135cff22207",
    "latitude": 43.8254888,
    "longitude": -79.5580729,
    "created_at": "2025-12-24T20:59:31.986+00:00"
  },
  {
    "id": "d1c7aa27-d191-4d02-874c-68d8794a4c7d",
    "title": "If you have to memorize, its because you dont understand it",
    "start_time": 8275.679,
    "end_time": 8278.718,
    "video_id": "bb17dc86-8913-4b9d-9067-a4cbeebba9d7",
    "profile_id": "19c47219-e31a-4208-a6db-a135cff22207",
    "latitude": 43.7495482,
    "longitude": -79.462478,
    "created_at": "2025-12-10T13:10:55.768+00:00"
  },
  {
    "id": "31ed9263-723b-493b-acb6-6cebef8463ad",
    "title": "Sodium ",
    "start_time": 190.719,
    "end_time": 209.759,
    "video_id": "627c3a87-65fb-4c7b-819f-fa4c63f37811",
    "profile_id": "19c47219-e31a-4208-a6db-a135cff22207",
    "latitude": 35.2180108,
    "longitude": -80.9427183,
    "created_at": "2025-12-11T19:46:38.491+00:00"
  },
  {
    "id": "c8c7860f-ba09-489f-8ef6-719700f85566",
    "title": "6th person, level 9, ?=!",
    "start_time": 2404.8,
    "end_time": 2645.28,
    "video_id": "cbf1e53e-cde1-410d-adab-3b98ec7ac11a",
    "profile_id": "19c47219-e31a-4208-a6db-a135cff22207",
    "latitude": 43.7992705,
    "longitude": -79.6130588,
    "created_at": "2025-12-23T04:19:39.572+00:00"
  },
  {
    "id": "e66add28-2097-4e6b-ac8a-71861505a6d1",
    "title": null,
    "start_time": 294.038,
    "end_time": 365.399,
    "video_id": "89e9164d-6b66-49d1-a29a-cdd125b08b6c",
    "profile_id": "19c47219-e31a-4208-a6db-a135cff22207",
    "latitude": 35.2186142,
    "longitude": -80.9416817,
    "created_at": "2025-12-11T19:51:51.371+00:00"
  },
  {
    "id": "e059e156-ffcb-48ee-998f-7841531e69b7",
    "title": "You have to mean it",
    "start_time": 4208.8,
    "end_time": 4221.27,
    "video_id": "6480b574-a065-45d5-8ca1-009d4e433f33",
    "profile_id": "19c47219-e31a-4208-a6db-a135cff22207",
    "latitude": 43.7992867,
    "longitude": -79.613108,
    "created_at": "2025-12-08T20:13:29.262+00:00"
  },
  {
    "id": "f57234de-5a90-4b43-80f0-f16998eea973",
    "title": "Level 2: Connect & Project",
    "start_time": 881.679,
    "end_time": 918.24,
    "video_id": "9350aa85-5c02-4f0b-9bef-2f3fd67bb58e",
    "profile_id": "19c47219-e31a-4208-a6db-a135cff22207",
    "latitude": 43.6866261,
    "longitude": -79.6219613,
    "created_at": "2025-12-11T16:32:24.316+00:00"
  },
  {
    "id": "088b8ba1-f1ce-47f9-ba4f-185ff256fec3",
    "title": "Comedy and music parellels",
    "start_time": 819.278,
    "end_time": 940.389,
    "video_id": "0e235d6d-d930-4b3b-9e25-f49ded9f8883",
    "profile_id": "19c47219-e31a-4208-a6db-a135cff22207",
    "latitude": 43.7992719,
    "longitude": -79.6130667,
    "created_at": "2025-12-08T20:43:40.892+00:00"
  },
  {
    "id": "15ccd1b4-b9bb-456f-9032-5aa725934ca6",
    "title": "Drunk memories",
    "start_time": 20.339,
    "end_time": 26.07,
    "video_id": "67548259-e612-4c28-872d-dfa6ed50b7c1",
    "profile_id": "19c47219-e31a-4208-a6db-a135cff22207",
    "latitude": 43.6866261,
    "longitude": -79.6219613,
    "created_at": "2025-12-11T16:15:09.496+00:00"
  },
  {
    "id": "f70ff5bd-765e-44fc-b93d-b55d636a3a4f",
    "title": "2026, full production games in AI?",
    "start_time": 967.679,
    "end_time": 991.36,
    "video_id": "ff8038f8-e164-49d1-898b-8c9a46fc9538",
    "profile_id": "19c47219-e31a-4208-a6db-a135cff22207",
    "latitude": 28.4116677,
    "longitude": -81.316045,
    "created_at": "2025-12-20T13:10:44.976+00:00"
  },
  {
    "id": "800790e2-ce94-42b7-a91d-947736d7dd3f",
    "title": "Dami Lama Compassion",
    "start_time": 2721.44,
    "end_time": 2731.358,
    "video_id": "cbf1e53e-cde1-410d-adab-3b98ec7ac11a",
    "profile_id": "19c47219-e31a-4208-a6db-a135cff22207",
    "latitude": 43.7992705,
    "longitude": -79.6130588,
    "created_at": "2025-12-23T04:20:48.637+00:00"
  },
  {
    "id": "8862bf1f-3831-4272-9757-a91429ff3ada",
    "title": "Full serendipity",
    "start_time": 2283.28,
    "end_time": 2325.76,
    "video_id": "bb17dc86-8913-4b9d-9067-a4cbeebba9d7",
    "profile_id": "19c47219-e31a-4208-a6db-a135cff22207",
    "latitude": 43.6747517,
    "longitude": -79.4069097,
    "created_at": "2025-12-09T13:25:57.037+00:00"
  },
  {
    "id": "0a2541b7-6753-4d61-8b72-7c83db2a4dc9",
    "title": "Ture wasted time, is when you are not present",
    "start_time": 5194.479,
    "end_time": 5199.198,
    "video_id": "bb17dc86-8913-4b9d-9067-a4cbeebba9d7",
    "profile_id": "19c47219-e31a-4208-a6db-a135cff22207",
    "latitude": 43.6974352,
    "longitude": -79.4308293,
    "created_at": "2025-12-10T01:30:45.495+00:00"
  },
  {
    "id": "d361a2ee-39ec-400f-ba7e-5b0fe57789c3",
    "title": "Go along with Christmas",
    "start_time": 3701.199,
    "end_time": 3743.838,
    "video_id": "6480b574-a065-45d5-8ca1-009d4e433f33",
    "profile_id": "19c47219-e31a-4208-a6db-a135cff22207",
    "latitude": 43.799284,
    "longitude": -79.6130946,
    "created_at": "2025-12-08T19:23:36.529+00:00"
  },
  {
    "id": "d3f5eeef-e0c6-4315-a8f1-ebf2f20ac753",
    "title": "Level 8 Step back for snapbacks",
    "start_time": 2272.88,
    "end_time": 2387.679,
    "video_id": "cbf1e53e-cde1-410d-adab-3b98ec7ac11a",
    "profile_id": "19c47219-e31a-4208-a6db-a135cff22207",
    "latitude": 43.7992705,
    "longitude": -79.6130588,
    "created_at": "2025-12-23T04:16:54.003+00:00"
  },
  {
    "id": "b6d32a4d-405f-44c5-b41e-4d453205042b",
    "title": null,
    "start_time": 3439.519,
    "end_time": 3441.599,
    "video_id": "6480b574-a065-45d5-8ca1-009d4e433f33",
    "profile_id": "19c47219-e31a-4208-a6db-a135cff22207",
    "latitude": 43.799284,
    "longitude": -79.6130946,
    "created_at": "2025-12-08T19:19:13.565+00:00"
  },
  {
    "id": "970c4a3a-c9e5-40d6-aa6a-0d1dd9ae4bb3",
    "title": "Flavanoids",
    "start_time": 295.68,
    "end_time": 312.079,
    "video_id": "0e6de103-3529-44c1-91b2-e9c5b3951185",
    "profile_id": "19c47219-e31a-4208-a6db-a135cff22207",
    "latitude": 28.4116677,
    "longitude": -81.316045,
    "created_at": "2025-12-20T12:44:41.166+00:00"
  },
  {
    "id": "6aab8664-bcdb-4f89-bc1a-e77f1b49dbf9",
    "title": "Mutineers",
    "start_time": 3862.349,
    "end_time": 3897.269,
    "video_id": "0fdb9971-ad0d-495b-b6d7-38cdbf408b93",
    "profile_id": "19c47219-e31a-4208-a6db-a135cff22207",
    "latitude": 35.2186142,
    "longitude": -80.9416817,
    "created_at": "2025-12-11T19:42:32.53+00:00"
  },
  {
    "id": "7c94a7e9-c587-417b-9e90-05759bea0d43",
    "title": "Phytosterols",
    "start_time": 241.28,
    "end_time": 295.199,
    "video_id": "0e6de103-3529-44c1-91b2-e9c5b3951185",
    "profile_id": "19c47219-e31a-4208-a6db-a135cff22207",
    "latitude": 28.4116677,
    "longitude": -81.316045,
    "created_at": "2025-12-20T12:44:11.242+00:00"
  },
  {
    "id": "7c3c2dce-bf4b-45fa-ad31-ca7b9cc52e37",
    "title": null,
    "start_time": 754,
    "end_time": 784.559,
    "video_id": "9319d553-1ca4-4d68-9981-7b6b510caf1e",
    "profile_id": "19c47219-e31a-4208-a6db-a135cff22207",
    "latitude": 43.7992936,
    "longitude": -79.6131031,
    "created_at": "2025-12-08T15:30:57.751+00:00"
  },
  {
    "id": "96869c40-f2d7-4711-8703-0c1f757a07cf",
    "title": "Pension problem",
    "start_time": 9126.239,
    "end_time": 9162.478,
    "video_id": "bb17dc86-8913-4b9d-9067-a4cbeebba9d7",
    "profile_id": "19c47219-e31a-4208-a6db-a135cff22207",
    "latitude": 43.7157664,
    "longitude": -79.4431384,
    "created_at": "2025-12-10T13:21:30.542+00:00"
  },
  {
    "id": "25f9876b-524a-418d-aca1-8c77d262aae8",
    "title": "Fighting Truman",
    "start_time": 3098.159,
    "end_time": 3379.599,
    "video_id": "6480b574-a065-45d5-8ca1-009d4e433f33",
    "profile_id": "19c47219-e31a-4208-a6db-a135cff22207",
    "latitude": 43.799284,
    "longitude": -79.6130946,
    "created_at": "2025-12-08T20:10:09.034+00:00"
  },
  {
    "id": "19dd6725-98b7-41af-ab6e-24b8bd3acbbf",
    "title": "Selling slow and personalized for big items",
    "start_time": 1532.798,
    "end_time": 1601.47,
    "video_id": "89e9164d-6b66-49d1-a29a-cdd125b08b6c",
    "profile_id": "19c47219-e31a-4208-a6db-a135cff22207",
    "latitude": 35.2186142,
    "longitude": -80.9416817,
    "created_at": "2025-12-11T20:00:48.86+00:00"
  },
  {
    "id": "dcc4bc84-bdba-4c24-bd48-8697d4639307",
    "title": "Never use 'other people think it'",
    "start_time": 3486.4,
    "end_time": 3512.88,
    "video_id": "6480b574-a065-45d5-8ca1-009d4e433f33",
    "profile_id": "19c47219-e31a-4208-a6db-a135cff22207",
    "latitude": 43.799284,
    "longitude": -79.6130946,
    "created_at": "2025-12-08T19:21:18.126+00:00"
  },
  {
    "id": "7e172de4-f288-4304-bec3-40eaffbea7f4",
    "title": "Where is money going",
    "start_time": 770.399,
    "end_time": 793,
    "video_id": "7eb49252-4abd-4b0b-a73f-503512ad8d73",
    "profile_id": "19c47219-e31a-4208-a6db-a135cff22207",
    "latitude": 0,
    "longitude": 0,
    "created_at": "2025-12-20T16:32:19.402+00:00"
  },
  {
    "id": "ba18e9df-8d9e-4f2d-8458-d0ad867ce250",
    "title": null,
    "start_time": 0.28,
    "end_time": 27.92,
    "video_id": "90e99714-0db1-4f3b-9c1a-f6263e9b22e9",
    "profile_id": "19c47219-e31a-4208-a6db-a135cff22207",
    "latitude": 43.8237797,
    "longitude": -79.5678089,
    "created_at": "2025-12-24T20:58:04.471+00:00"
  },
  {
    "id": "0e2c122a-b73b-46d4-b158-25de1434da38",
    "title": "OOP is graph traversal",
    "start_time": 3898.75,
    "end_time": 3973.929,
    "video_id": "0fdb9971-ad0d-495b-b6d7-38cdbf408b93",
    "profile_id": "19c47219-e31a-4208-a6db-a135cff22207",
    "latitude": 35.2186142,
    "longitude": -80.9416817,
    "created_at": "2025-12-11T19:43:28.317+00:00"
  },
  {
    "id": "1d434a00-0e1e-4014-bfdf-a0649f35f421",
    "title": "10x10 min != 100 min in humans",
    "start_time": 565.958,
    "end_time": 604.919,
    "video_id": "89e9164d-6b66-49d1-a29a-cdd125b08b6c",
    "profile_id": "19c47219-e31a-4208-a6db-a135cff22207",
    "latitude": 35.2186142,
    "longitude": -80.9416817,
    "created_at": "2025-12-11T19:54:03.986+00:00"
  },
  {
    "id": "9b07b024-f174-4257-8499-2906784da065",
    "title": "Plain yogurt",
    "start_time": 489.918,
    "end_time": 500.079,
    "video_id": "0e6de103-3529-44c1-91b2-e9c5b3951185",
    "profile_id": "19c47219-e31a-4208-a6db-a135cff22207",
    "latitude": 28.4116677,
    "longitude": -81.316045,
    "created_at": "2025-12-20T12:51:00.622+00:00"
  },
  {
    "id": "b96e5ebd-a9de-4d32-884e-b8e6b9d02008",
    "title": "Hate is un cool",
    "start_time": 1412.319,
    "end_time": 1449.829,
    "video_id": "c30a40b3-2ae6-4e19-b59c-ca7f93a03e69",
    "profile_id": "19c47219-e31a-4208-a6db-a135cff22207",
    "latitude": 0,
    "longitude": 0,
    "created_at": "2025-12-20T16:32:15.764+00:00"
  },
  {
    "id": "a3db6c60-f975-48f2-86aa-9add41d0907e",
    "title": "Multi silicon",
    "start_time": 147.52,
    "end_time": 240.868,
    "video_id": "e716b92c-c248-48b0-af76-f1ee8b0bffde",
    "profile_id": "19c47219-e31a-4208-a6db-a135cff22207",
    "latitude": 43.7993035,
    "longitude": -79.6130842,
    "created_at": "2025-12-01T21:02:04.443+00:00"
  },
  {
    "id": "ae13e7bc-95b9-43a5-b4a9-5e5fbabe9340",
    "title": "False Inclusion",
    "start_time": 1805.599,
    "end_time": 1880.558,
    "video_id": "cbf1e53e-cde1-410d-adab-3b98ec7ac11a",
    "profile_id": "19c47219-e31a-4208-a6db-a135cff22207",
    "latitude": 43.7992821,
    "longitude": -79.6131176,
    "created_at": "2025-12-23T03:52:59.926+00:00"
  },
  {
    "id": "99ed63ba-091d-4f96-819f-9d88ac70f446",
    "title": "Skip the dinner",
    "start_time": 129.758,
    "end_time": 192.719,
    "video_id": "6480b574-a065-45d5-8ca1-009d4e433f33",
    "profile_id": "19c47219-e31a-4208-a6db-a135cff22207",
    "latitude": 43.799284,
    "longitude": -79.6131119,
    "created_at": "2025-12-08T16:50:02.562+00:00"
  },
  {
    "id": "a7c749ad-6b21-4ee6-b2e2-b736361f744b",
    "title": "Pressure cooking",
    "start_time": 3324.559,
    "end_time": 3376.789,
    "video_id": "c30a40b3-2ae6-4e19-b59c-ca7f93a03e69",
    "profile_id": "19c47219-e31a-4208-a6db-a135cff22207",
    "latitude": 0,
    "longitude": 0,
    "created_at": "2025-12-20T16:32:18.228+00:00"
  },
  {
    "id": "0e2df39c-fe86-4b6a-981f-3755d0c1c3f3",
    "title": "Thats what that kid was thinking",
    "start_time": 2883.44,
    "end_time": 2925.429,
    "video_id": "c30a40b3-2ae6-4e19-b59c-ca7f93a03e69",
    "profile_id": "19c47219-e31a-4208-a6db-a135cff22207",
    "latitude": 0,
    "longitude": 0,
    "created_at": "2025-12-20T16:32:17.801+00:00"
  },
  {
    "id": "c1123d94-f1de-47cf-8e1f-7c5f2364cafd",
    "title": "MIllers law: Chunking",
    "start_time": 372.418,
    "end_time": 434.23,
    "video_id": "0fdb9971-ad0d-495b-b6d7-38cdbf408b93",
    "profile_id": "19c47219-e31a-4208-a6db-a135cff22207",
    "latitude": 35.2190326,
    "longitude": -80.9427183,
    "created_at": "2025-12-11T19:30:15.166+00:00"
  },
  {
    "id": "b8bc1cb8-b406-4744-bc7e-80cec5532f3c",
    "title": "Resupply",
    "start_time": 137.919,
    "end_time": 162.629,
    "video_id": "0e235d6d-d930-4b3b-9e25-f49ded9f8883",
    "profile_id": "19c47219-e31a-4208-a6db-a135cff22207",
    "latitude": 43.6457926,
    "longitude": -79.3794649,
    "created_at": "2025-12-10T18:09:46.382+00:00"
  },
  {
    "id": "866837a3-a06c-4d2a-94bc-86754c8c6210",
    "title": "Level 1 desire",
    "start_time": 850.399,
    "end_time": 881.679,
    "video_id": "9350aa85-5c02-4f0b-9bef-2f3fd67bb58e",
    "profile_id": "19c47219-e31a-4208-a6db-a135cff22207",
    "latitude": 43.6866261,
    "longitude": -79.6219613,
    "created_at": "2025-12-11T16:31:54.403+00:00"
  },
  {
    "id": "36dd35b2-2143-4444-bff7-ba6d245f3193",
    "title": "Putter and shop around before working",
    "start_time": 280.889,
    "end_time": 296.73,
    "video_id": "0fdb9971-ad0d-495b-b6d7-38cdbf408b93",
    "profile_id": "19c47219-e31a-4208-a6db-a135cff22207",
    "latitude": 43.6566958,
    "longitude": -79.6938828,
    "created_at": "2025-12-11T17:06:41.805+00:00"
  },
  {
    "id": "9cba587e-2b4d-45d2-bff3-a454fb151345",
    "title": "Use sets and dicts only",
    "start_time": 309.569,
    "end_time": 319.61,
    "video_id": "0fdb9971-ad0d-495b-b6d7-38cdbf408b93",
    "profile_id": "19c47219-e31a-4208-a6db-a135cff22207",
    "latitude": 43.6378382,
    "longitude": -79.6921293,
    "created_at": "2025-12-11T17:07:09.728+00:00"
  },
  {
    "id": "af750fbc-e189-4e66-b28d-e54a69ed5d9a",
    "title": "Express lane frame charity",
    "start_time": 693.278,
    "end_time": 769.759,
    "video_id": "7eb49252-4abd-4b0b-a73f-503512ad8d73",
    "profile_id": "19c47219-e31a-4208-a6db-a135cff22207",
    "latitude": 0,
    "longitude": 0,
    "created_at": "2025-12-20T16:32:19.325+00:00"
  },
  {
    "id": "36660163-a7b9-46e1-9a83-ec472ad0eda7",
    "title": "Good distaraction for drug avoidance",
    "start_time": 2961.358,
    "end_time": 3028.63,
    "video_id": "6480b574-a065-45d5-8ca1-009d4e433f33",
    "profile_id": "19c47219-e31a-4208-a6db-a135cff22207",
    "latitude": 43.7992879,
    "longitude": -79.6131009,
    "created_at": "2025-12-08T19:15:19.25+00:00"
  },
  {
    "id": "832dc2e2-1081-406e-82e3-a4f9304ee0f6",
    "title": "State dependant memory",
    "start_time": 33.719,
    "end_time": 75.959,
    "video_id": "67548259-e612-4c28-872d-dfa6ed50b7c1",
    "profile_id": "19c47219-e31a-4208-a6db-a135cff22207",
    "latitude": 43.6866261,
    "longitude": -79.6219613,
    "created_at": "2025-12-11T16:16:38.619+00:00"
  },
  {
    "id": "fcc84929-5077-4f9c-a1d7-402d336aeed9",
    "title": null,
    "start_time": 535.549,
    "end_time": 616.85,
    "video_id": "83b74153-793c-47bf-953b-d6e764ec2e12",
    "profile_id": "19c47219-e31a-4208-a6db-a135cff22207",
    "latitude": 43.9857771,
    "longitude": -79.3643316,
    "created_at": "2025-12-24T21:29:49.259+00:00"
  },
  {
    "id": "aed01bae-8a9e-49f0-a2d4-0e797dad8db1",
    "title": "Atherosclerocis overview",
    "start_time": 137.439,
    "end_time": 154.878,
    "video_id": "0e6de103-3529-44c1-91b2-e9c5b3951185",
    "profile_id": "19c47219-e31a-4208-a6db-a135cff22207",
    "latitude": 28.4116677,
    "longitude": -81.316045,
    "created_at": "2025-12-20T12:42:02.645+00:00"
  },
  {
    "id": "e20dd003-d04b-41a1-93fd-7022fe252c67",
    "title": "Tower of babel",
    "start_time": 1339.679,
    "end_time": 1501.19,
    "video_id": "cbf1e53e-cde1-410d-adab-3b98ec7ac11a",
    "profile_id": "19c47219-e31a-4208-a6db-a135cff22207",
    "latitude": 43.6852689,
    "longitude": -79.6192298,
    "created_at": "2025-12-20T17:00:30.797+00:00"
  },
  {
    "id": "4b9b16e9-cec6-45d6-b98c-7bb4720e7909",
    "title": "5 v 6",
    "start_time": 1114.079,
    "end_time": 1229.038,
    "video_id": "9350aa85-5c02-4f0b-9bef-2f3fd67bb58e",
    "profile_id": "19c47219-e31a-4208-a6db-a135cff22207",
    "latitude": 43.6878197,
    "longitude": -79.6188024,
    "created_at": "2025-12-11T16:56:41.158+00:00"
  },
  {
    "id": "cfcfc407-a916-4aaa-ab80-9b2635a50ae2",
    "title": "Human oversight of critical things",
    "start_time": 8957.12,
    "end_time": 8969.19,
    "video_id": "bb17dc86-8913-4b9d-9067-a4cbeebba9d7",
    "profile_id": "19c47219-e31a-4208-a6db-a135cff22207",
    "latitude": 43.7237625,
    "longitude": -79.4463033,
    "created_at": "2025-12-10T13:19:42.884+00:00"
  },
  {
    "id": "71b83423-550d-442f-920f-2574dc757cce",
    "title": "Atmospheres and whiteboards",
    "start_time": 1817.038,
    "end_time": 1942.398,
    "video_id": "c30a40b3-2ae6-4e19-b59c-ca7f93a03e69",
    "profile_id": "19c47219-e31a-4208-a6db-a135cff22207",
    "latitude": 28.4479011,
    "longitude": -81.2654769,
    "created_at": "2025-12-20T16:32:16.728+00:00"
  },
  {
    "id": "eec29b8d-c94d-48c3-b83e-31823b4f33c5",
    "title": null,
    "start_time": 750.078,
    "end_time": 786.6,
    "video_id": "90e99714-0db1-4f3b-9c1a-f6263e9b22e9",
    "profile_id": "19c47219-e31a-4208-a6db-a135cff22207",
    "latitude": 43.9131907,
    "longitude": -79.5700018,
    "created_at": "2025-12-24T21:07:32.759+00:00"
  },
  {
    "id": "0324361d-9845-4193-82bd-052d665691b4",
    "title": "I want wolves, not dogs",
    "start_time": 10129.359,
    "end_time": 10209.51,
    "video_id": "bb17dc86-8913-4b9d-9067-a4cbeebba9d7",
    "profile_id": "19c47219-e31a-4208-a6db-a135cff22207",
    "latitude": 43.6897334,
    "longitude": -79.4213325,
    "created_at": "2025-12-10T13:32:08.254+00:00"
  },
  {
    "id": "6f6651b4-a695-4532-9668-36d39259c886",
    "title": "Fineman method",
    "start_time": 1401.18,
    "end_time": 1424.619,
    "video_id": "0fdb9971-ad0d-495b-b6d7-38cdbf408b93",
    "profile_id": "19c47219-e31a-4208-a6db-a135cff22207",
    "latitude": 35.2190326,
    "longitude": -80.9427183,
    "created_at": "2025-12-11T19:33:47.759+00:00"
  },
  {
    "id": "685b6dab-b8ee-414c-88f8-c517398f2907",
    "title": "Did I start that?",
    "start_time": 1809.519,
    "end_time": 1838.798,
    "video_id": "6480b574-a065-45d5-8ca1-009d4e433f33",
    "profile_id": "19c47219-e31a-4208-a6db-a135cff22207",
    "latitude": 43.7993285,
    "longitude": -79.6130959,
    "created_at": "2025-12-08T17:05:25.49+00:00"
  },
  {
    "id": "c12d3673-cdf6-435a-8402-c98444e433a4",
    "title": "Behavioural genetics > parenting books",
    "start_time": 6181.039,
    "end_time": 6203.51,
    "video_id": "bb17dc86-8913-4b9d-9067-a4cbeebba9d7",
    "profile_id": "19c47219-e31a-4208-a6db-a135cff22207",
    "latitude": 43.7413295,
    "longitude": -79.4536878,
    "created_at": "2025-12-10T01:43:54.665+00:00"
  },
  {
    "id": "0d124cd2-c934-4a19-ab60-20e7794fc0ee",
    "title": "Skipping class for goals",
    "start_time": 295.279,
    "end_time": 329.839,
    "video_id": "debbf99c-54d4-405f-acaa-738499dd07cf",
    "profile_id": "19c47219-e31a-4208-a6db-a135cff22207",
    "latitude": 43.7992932,
    "longitude": -79.6130895,
    "created_at": "2025-12-07T18:16:49.967+00:00"
  },
  {
    "id": "faabfd90-d44e-4782-8ed7-f6be45dbddab",
    "title": "Steve says its cool man",
    "start_time": 652.24,
    "end_time": 794.24,
    "video_id": "9350aa85-5c02-4f0b-9bef-2f3fd67bb58e",
    "profile_id": "19c47219-e31a-4208-a6db-a135cff22207",
    "latitude": 43.6866261,
    "longitude": -79.6219613,
    "created_at": "2025-12-11T16:30:29.469+00:00"
  },
  {
    "id": "78e2dd47-8f70-4c73-be81-76c4f8721bbd",
    "title": "No reality distortion",
    "start_time": 3431.92,
    "end_time": 3487.269,
    "video_id": "6480b574-a065-45d5-8ca1-009d4e433f33",
    "profile_id": "19c47219-e31a-4208-a6db-a135cff22207",
    "latitude": 43.799284,
    "longitude": -79.6130946,
    "created_at": "2025-12-08T19:19:43.58+00:00"
  },
  {
    "id": "92770fb4-0531-4a9e-ba53-ee6599db74ca",
    "title": "Observe and Report Lennon",
    "start_time": 1039.679,
    "end_time": 1154.788,
    "video_id": "0e235d6d-d930-4b3b-9e25-f49ded9f8883",
    "profile_id": "19c47219-e31a-4208-a6db-a135cff22207",
    "latitude": 43.7992719,
    "longitude": -79.6130667,
    "created_at": "2025-12-08T20:45:37.482+00:00"
  },
  {
    "id": "ecb91dee-b3d0-41b3-9735-0361b49baa44",
    "title": null,
    "start_time": 260.779,
    "end_time": 500.11,
    "video_id": "83b74153-793c-47bf-953b-d6e764ec2e12",
    "profile_id": "19c47219-e31a-4208-a6db-a135cff22207",
    "latitude": 43.9857771,
    "longitude": -79.3643316,
    "created_at": "2025-12-24T21:28:30.499+00:00"
  },
  {
    "id": "2193edf3-afde-4e24-9850-bf35c938e085",
    "title": "Citizen of the world",
    "start_time": 1066,
    "end_time": 1114.079,
    "video_id": "9350aa85-5c02-4f0b-9bef-2f3fd67bb58e",
    "profile_id": "19c47219-e31a-4208-a6db-a135cff22207",
    "latitude": 43.6878197,
    "longitude": -79.6188024,
    "created_at": "2025-12-11T16:55:26.714+00:00"
  },
  {
    "id": "aa714715-3518-4fc2-afec-58f9585b82e0",
    "title": "Explored fields",
    "start_time": 709.679,
    "end_time": 737.99,
    "video_id": "4b264025-cc00-40d3-8b62-517ffd60d2f9",
    "profile_id": "19c47219-e31a-4208-a6db-a135cff22207",
    "latitude": 43.7992787,
    "longitude": -79.6130836,
    "created_at": "2025-12-07T18:46:06.51+00:00"
  },
  {
    "id": "6efee2a1-965f-49ea-a514-3010615a56d8",
    "title": "Starbucks and flat whites",
    "start_time": 1418.798,
    "end_time": 1452.119,
    "video_id": "89e9164d-6b66-49d1-a29a-cdd125b08b6c",
    "profile_id": "19c47219-e31a-4208-a6db-a135cff22207",
    "latitude": 35.2186142,
    "longitude": -80.9416817,
    "created_at": "2025-12-11T20:00:04.756+00:00"
  },
  {
    "id": "ee4d63a0-9032-4869-b8b0-cffe0543d68c",
    "title": "Victimhood",
    "start_time": 11339.2,
    "end_time": 11420.308,
    "video_id": "bb17dc86-8913-4b9d-9067-a4cbeebba9d7",
    "profile_id": "19c47219-e31a-4208-a6db-a135cff22207",
    "latitude": 43.6598632,
    "longitude": -79.3903734,
    "created_at": "2025-12-10T13:44:01.562+00:00"
  },
  {
    "id": "628b563c-10f8-47d6-bb06-c17b9824c4e8",
    "title": "Internal golden rule",
    "start_time": 1699.119,
    "end_time": 1717.038,
    "video_id": "bb17dc86-8913-4b9d-9067-a4cbeebba9d7",
    "profile_id": "19c47219-e31a-4208-a6db-a135cff22207",
    "latitude": 43.6991463,
    "longitude": -79.4332912,
    "created_at": "2025-12-09T13:20:29.983+00:00"
  },
  {
    "id": "3dcf20fd-3ff7-477c-9c08-8787148dc020",
    "title": "What you bookmarks speaks volumes",
    "start_time": 1988.24,
    "end_time": 2031.509,
    "video_id": "0e235d6d-d930-4b3b-9e25-f49ded9f8883",
    "profile_id": "19c47219-e31a-4208-a6db-a135cff22207",
    "latitude": 43.7992719,
    "longitude": -79.6130667,
    "created_at": "2025-12-08T20:54:08.658+00:00"
  },
  {
    "id": "3f509b10-f064-49c6-9f8f-1ce03eff8878",
    "title": "Paceometer vs Speedometer",
    "start_time": 128.959,
    "end_time": 243.598,
    "video_id": "89e9164d-6b66-49d1-a29a-cdd125b08b6c",
    "profile_id": "19c47219-e31a-4208-a6db-a135cff22207",
    "latitude": 35.2180108,
    "longitude": -80.9427183,
    "created_at": "2025-12-11T19:48:45.24+00:00"
  },
  {
    "id": "4e9fae7d-f466-4d7e-a723-23978c9e01a3",
    "title": "Influenced by intelligent conversations",
    "start_time": 562.639,
    "end_time": 599.679,
    "video_id": "9319d553-1ca4-4d68-9981-7b6b510caf1e",
    "profile_id": "19c47219-e31a-4208-a6db-a135cff22207",
    "latitude": 43.7992831,
    "longitude": -79.6131056,
    "created_at": "2025-12-08T15:25:04.615+00:00"
  },
  {
    "id": "5419b87a-e645-43b6-9576-be53b25d9b06",
    "title": "Catechins; tea",
    "start_time": 353.759,
    "end_time": 373.68,
    "video_id": "0e6de103-3529-44c1-91b2-e9c5b3951185",
    "profile_id": "19c47219-e31a-4208-a6db-a135cff22207",
    "latitude": 28.4116677,
    "longitude": -81.316045,
    "created_at": "2025-12-20T12:45:22.888+00:00"
  },
  {
    "id": "f2c1354f-4ef1-4ab0-8e6a-27ac21b6ff8c",
    "title": "Moment of curiosity > schedule ",
    "start_time": 2503.92,
    "end_time": 2538.639,
    "video_id": "bb17dc86-8913-4b9d-9067-a4cbeebba9d7",
    "profile_id": "19c47219-e31a-4208-a6db-a135cff22207",
    "latitude": 43.6747517,
    "longitude": -79.4069097,
    "created_at": "2025-12-09T13:28:28.14+00:00"
  },
  {
    "id": "7451022e-0c71-4bba-bc92-9254faf0ceba",
    "title": "Advertising asking to go backwards",
    "start_time": 1148.279,
    "end_time": 1230.548,
    "video_id": "89e9164d-6b66-49d1-a29a-cdd125b08b6c",
    "profile_id": "19c47219-e31a-4208-a6db-a135cff22207",
    "latitude": 35.2186142,
    "longitude": -80.9416817,
    "created_at": "2025-12-11T19:58:42.767+00:00"
  },
  {
    "id": "25983f15-3180-4228-a075-44e54051a09f",
    "title": "Olive oid and polyphenols",
    "start_time": 387.36,
    "end_time": 410.079,
    "video_id": "0e6de103-3529-44c1-91b2-e9c5b3951185",
    "profile_id": "19c47219-e31a-4208-a6db-a135cff22207",
    "latitude": 28.4116677,
    "longitude": -81.316045,
    "created_at": "2025-12-20T12:47:59.697+00:00"
  },
  {
    "id": "fe5aec7c-be20-4a1c-9b1b-fec354e063a1",
    "title": "Chat GPT does not have a 'life'",
    "start_time": 8939.04,
    "end_time": 8955.28,
    "video_id": "bb17dc86-8913-4b9d-9067-a4cbeebba9d7",
    "profile_id": "19c47219-e31a-4208-a6db-a135cff22207",
    "latitude": 43.7277454,
    "longitude": -79.444545,
    "created_at": "2025-12-10T13:19:32.721+00:00"
  },
  {
    "id": "51101f55-4234-42d4-9db2-c85d6bbc70ea",
    "title": "Musical comedy cadence and space",
    "start_time": 1178,
    "end_time": 1242.63,
    "video_id": "0e235d6d-d930-4b3b-9e25-f49ded9f8883",
    "profile_id": "19c47219-e31a-4208-a6db-a135cff22207",
    "latitude": 43.7992719,
    "longitude": -79.6130667,
    "created_at": "2025-12-08T20:47:50.095+00:00"
  },
  {
    "id": "a88c6a57-b5d4-4e67-9fd9-252837ae6f4e",
    "title": "Effeciency, happenis, success and freedom are the same",
    "start_time": 2588.159,
    "end_time": 2614.159,
    "video_id": "bb17dc86-8913-4b9d-9067-a4cbeebba9d7",
    "profile_id": "19c47219-e31a-4208-a6db-a135cff22207",
    "latitude": 0,
    "longitude": 0,
    "created_at": "2025-12-09T13:29:32.126+00:00"
  },
  {
    "id": "c5828a08-42a3-4ef3-8440-53f3f8fee7c9",
    "title": "State dependat learning in other life",
    "start_time": 162.539,
    "end_time": 222.389,
    "video_id": "67548259-e612-4c28-872d-dfa6ed50b7c1",
    "profile_id": "19c47219-e31a-4208-a6db-a135cff22207",
    "latitude": 43.6866261,
    "longitude": -79.6219613,
    "created_at": "2025-12-11T16:18:15.479+00:00"
  },
  {
    "id": "7e5ef388-d00a-4503-8d3b-7dcacb28a866",
    "title": "Harmony",
    "start_time": 1497.919,
    "end_time": 1537.119,
    "video_id": "9350aa85-5c02-4f0b-9bef-2f3fd67bb58e",
    "profile_id": "19c47219-e31a-4208-a6db-a135cff22207",
    "latitude": 43.7036383,
    "longitude": -79.6426665,
    "created_at": "2025-12-11T17:01:15.844+00:00"
  },
  {
    "id": "2c37ff7f-e081-44a1-81b3-f8f2dbfe7b79",
    "title": "Red light therapy",
    "start_time": 359.279,
    "end_time": 400.24,
    "video_id": "d3288c5c-aab5-48b1-9ea7-3c8e05042fb4",
    "profile_id": "19c47219-e31a-4208-a6db-a135cff22207",
    "latitude": 35.1913983,
    "longitude": -80.9603387,
    "created_at": "2025-12-11T20:08:51.838+00:00"
  },
  {
    "id": "464af579-9357-4437-9e31-7073b072fa25",
    "title": "Pure libertarians get outcompeted due lack of coordination",
    "start_time": 8670.478,
    "end_time": 8696.559,
    "video_id": "bb17dc86-8913-4b9d-9067-a4cbeebba9d7",
    "profile_id": "19c47219-e31a-4208-a6db-a135cff22207",
    "latitude": 43.73429,
    "longitude": -79.4512263,
    "created_at": "2025-12-10T13:15:23.499+00:00"
  },
  {
    "id": "daaca4c0-267e-4eb9-8cb8-0b4c28ddb8cb",
    "title": "Recontextualize Unteachable Lessons",
    "start_time": 6934,
    "end_time": 7015.198,
    "video_id": "bb17dc86-8913-4b9d-9067-a4cbeebba9d7",
    "profile_id": "19c47219-e31a-4208-a6db-a135cff22207",
    "latitude": 43.7536815,
    "longitude": -79.4782982,
    "created_at": "2025-12-10T01:51:18.541+00:00"
  },
  {
    "id": "6c2d9164-0e83-40e3-9923-b2984badaed8",
    "title": "Hidden wants under obligations",
    "start_time": 2982.239,
    "end_time": 3012.639,
    "video_id": "bb17dc86-8913-4b9d-9067-a4cbeebba9d7",
    "profile_id": "19c47219-e31a-4208-a6db-a135cff22207",
    "latitude": 0,
    "longitude": 0,
    "created_at": "2025-12-09T13:32:44.003+00:00"
  },
  {
    "id": "61aea92d-32e9-42b0-82b1-a21fb08ed633",
    "title": "Tree from NVIDI",
    "start_time": 29.678,
    "end_time": 52.159,
    "video_id": "e716b92c-c248-48b0-af76-f1ee8b0bffde",
    "profile_id": "19c47219-e31a-4208-a6db-a135cff22207",
    "latitude": 43.7993035,
    "longitude": -79.6130842,
    "created_at": "2025-12-01T20:57:17.975+00:00"
  },
  {
    "id": "125495aa-cff5-47de-ac9c-a261c3f86855",
    "title": "Feeling with no words, and daemons",
    "start_time": 1622.319,
    "end_time": 1691.839,
    "video_id": "bb17dc86-8913-4b9d-9067-a4cbeebba9d7",
    "profile_id": "19c47219-e31a-4208-a6db-a135cff22207",
    "latitude": 43.7087233,
    "longitude": -79.4406767,
    "created_at": "2025-12-09T13:18:49.09+00:00"
  },
  {
    "id": "94cf5848-c350-473a-bede-5809afe3587b",
    "title": "Greats are chasing second art",
    "start_time": 1352.4,
    "end_time": 1414.71,
    "video_id": "0e235d6d-d930-4b3b-9e25-f49ded9f8883",
    "profile_id": "19c47219-e31a-4208-a6db-a135cff22207",
    "latitude": 43.7992719,
    "longitude": -79.6130667,
    "created_at": "2025-12-08T20:49:46.842+00:00"
  },
  {
    "id": "2308fc7c-039e-4b2b-a267-ce924c15a8ae",
    "title": "I just love being with this spirit",
    "start_time": 5705.679,
    "end_time": 5809.829,
    "video_id": "bb17dc86-8913-4b9d-9067-a4cbeebba9d7",
    "profile_id": "19c47219-e31a-4208-a6db-a135cff22207",
    "latitude": 43.7151412,
    "longitude": -79.4427867,
    "created_at": "2025-12-10T01:35:50.134+00:00"
  },
  {
    "id": "98705bbf-880e-4e72-a5a8-3536a0b5e565",
    "title": "Specificity in poetry",
    "start_time": 1281.44,
    "end_time": 1309.279,
    "video_id": "6480b574-a065-45d5-8ca1-009d4e433f33",
    "profile_id": "19c47219-e31a-4208-a6db-a135cff22207",
    "latitude": 43.7993285,
    "longitude": -79.6130959,
    "created_at": "2025-12-08T16:59:35.995+00:00"
  },
  {
    "id": "22520f08-c121-4a73-9894-a07c9935813f",
    "title": "6 + 4 = 3",
    "start_time": 1581.359,
    "end_time": 1620.309,
    "video_id": "9350aa85-5c02-4f0b-9bef-2f3fd67bb58e",
    "profile_id": "19c47219-e31a-4208-a6db-a135cff22207",
    "latitude": 43.7033739,
    "longitude": -79.6430174,
    "created_at": "2025-12-11T17:02:30.371+00:00"
  },
  {
    "id": "d480ec91-aeb3-443a-80ec-6b6a677a3328",
    "title": "You cant fake mad genius",
    "start_time": 5071.279,
    "end_time": 5112.069,
    "video_id": "6480b574-a065-45d5-8ca1-009d4e433f33",
    "profile_id": "19c47219-e31a-4208-a6db-a135cff22207",
    "latitude": 43.7992734,
    "longitude": -79.6130953,
    "created_at": "2025-12-08T20:24:11.847+00:00"
  },
  {
    "id": "cafea866-956c-4863-8363-1224ef95d0fe",
    "title": "Potassium sodium balance",
    "start_time": 70.319,
    "end_time": 108.159,
    "video_id": "627c3a87-65fb-4c7b-819f-fa4c63f37811",
    "profile_id": "19c47219-e31a-4208-a6db-a135cff22207",
    "latitude": 35.2186142,
    "longitude": -80.9416817,
    "created_at": "2025-12-11T19:45:24.701+00:00"
  },
  {
    "id": "b1de875a-cbef-449a-84f9-99e805666e6b",
    "title": null,
    "start_time": 70.64,
    "end_time": 85.84,
    "video_id": "adcb9f8d-362c-4a5f-884b-75653471ac3e",
    "profile_id": "19c47219-e31a-4208-a6db-a135cff22207",
    "latitude": 43.8154349,
    "longitude": -79.6072394,
    "created_at": "2025-12-24T20:54:16.759+00:00"
  },
  {
    "id": "23c0f1fd-39c2-404d-bcc1-17bda08d62a4",
    "title": "Modern medicine missing explanitory theories",
    "start_time": 10808.478,
    "end_time": 10875.84,
    "video_id": "bb17dc86-8913-4b9d-9067-a4cbeebba9d7",
    "profile_id": "19c47219-e31a-4208-a6db-a135cff22207",
    "latitude": 43.6683953,
    "longitude": -79.3991697,
    "created_at": "2025-12-10T13:39:22.53+00:00"
  },
  {
    "id": "4cba0ee5-7721-4fe2-8cae-4121470fa3ef",
    "title": null,
    "start_time": 331.68,
    "end_time": 341.99,
    "video_id": "adcb9f8d-362c-4a5f-884b-75653471ac3e",
    "profile_id": "19c47219-e31a-4208-a6db-a135cff22207",
    "latitude": 43.8233167,
    "longitude": -79.573132,
    "created_at": "2025-12-24T20:57:31.16+00:00"
  },
  {
    "id": "5d71eae1-7674-4baa-ae0a-30677e6e9d8f",
    "title": "Enjoy the ride",
    "start_time": 371.24,
    "end_time": 422.869,
    "video_id": "7eb49252-4abd-4b0b-a73f-503512ad8d73",
    "profile_id": "19c47219-e31a-4208-a6db-a135cff22207",
    "latitude": 0,
    "longitude": 0,
    "created_at": "2025-12-20T16:32:18.9+00:00"
  },
  {
    "id": "e4b0c678-de72-4ac4-af04-747eb25ef989",
    "title": "Life is learning all the time",
    "start_time": 44.878,
    "end_time": 82.879,
    "video_id": "8a91b11b-2481-48a1-bcf4-7eb18e0a2d68",
    "profile_id": "19c47219-e31a-4208-a6db-a135cff22207",
    "latitude": 43.7992809,
    "longitude": -79.6131007,
    "created_at": "2025-12-08T15:52:42.229+00:00"
  },
  {
    "id": "3e219157-c342-4b7a-9236-034450c49aa6",
    "title": "Watching your mind",
    "start_time": 2131.599,
    "end_time": 2199.199,
    "video_id": "cbf1e53e-cde1-410d-adab-3b98ec7ac11a",
    "profile_id": "19c47219-e31a-4208-a6db-a135cff22207",
    "latitude": 43.7992705,
    "longitude": -79.6130588,
    "created_at": "2025-12-23T04:14:26.665+00:00"
  },
  {
    "id": "389a8473-981c-4fcd-8ecd-dde4580ce0ca",
    "title": "Gut is refined judgement",
    "start_time": 5439.92,
    "end_time": 5530.158,
    "video_id": "bb17dc86-8913-4b9d-9067-a4cbeebba9d7",
    "profile_id": "19c47219-e31a-4208-a6db-a135cff22207",
    "latitude": 43.7075069,
    "longitude": -79.4371599,
    "created_at": "2025-12-10T01:33:24.682+00:00"
  },
  {
    "id": "ca681ceb-8870-4229-93c2-43053bc0cfc0",
    "title": "Phsyco math feedback loop",
    "start_time": 270.24,
    "end_time": 285.759,
    "video_id": "cbf1e53e-cde1-410d-adab-3b98ec7ac11a",
    "profile_id": "19c47219-e31a-4208-a6db-a135cff22207",
    "latitude": 43.6834889,
    "longitude": -79.6192846,
    "created_at": "2025-12-20T16:39:31.518+00:00"
  },
  {
    "id": "d56ebbf0-20fc-4de6-90eb-8d1b12d25224",
    "title": "Abundant underutilized smart people",
    "start_time": 197.199,
    "end_time": 216.469,
    "video_id": "debbf99c-54d4-405f-acaa-738499dd07cf",
    "profile_id": "19c47219-e31a-4208-a6db-a135cff22207",
    "latitude": 43.7992873,
    "longitude": -79.6131159,
    "created_at": "2025-12-07T18:12:53.099+00:00"
  },
  {
    "id": "bddbafe3-5fe8-4ae8-9b5e-4ed26a577ed7",
    "title": "Frame the video",
    "start_time": 4767.679,
    "end_time": 4783.119,
    "video_id": "6480b574-a065-45d5-8ca1-009d4e433f33",
    "profile_id": "19c47219-e31a-4208-a6db-a135cff22207",
    "latitude": 43.7992678,
    "longitude": -79.613082,
    "created_at": "2025-12-08T20:20:51.996+00:00"
  },
  {
    "id": "86035f3f-5971-41a8-bb33-322753eaa8d9",
    "title": "Forrest Gump Memories",
    "start_time": 4749.279,
    "end_time": 4768.079,
    "video_id": "6480b574-a065-45d5-8ca1-009d4e433f33",
    "profile_id": "19c47219-e31a-4208-a6db-a135cff22207",
    "latitude": 43.7992815,
    "longitude": -79.6130872,
    "created_at": "2025-12-08T20:20:21.003+00:00"
  },
  {
    "id": "720c7585-9da0-4235-b9bb-ba3f82f04d3c",
    "title": "branding",
    "start_time": 0.64,
    "end_time": 19.039,
    "video_id": "cbf1e53e-cde1-410d-adab-3b98ec7ac11a",
    "profile_id": "19c47219-e31a-4208-a6db-a135cff22207",
    "latitude": 43.7992724,
    "longitude": -79.6131101,
    "created_at": "2025-12-23T20:00:06.515+00:00"
  },
  {
    "id": "09c8358a-4c51-4767-9bab-1a93bd19fdcf",
    "title": "Girl and dad level",
    "start_time": 934.48,
    "end_time": 1300.24,
    "video_id": "cbf1e53e-cde1-410d-adab-3b98ec7ac11a",
    "profile_id": "19c47219-e31a-4208-a6db-a135cff22207",
    "latitude": 43.6854702,
    "longitude": -79.6195684,
    "created_at": "2025-12-20T16:57:01.888+00:00"
  },
  {
    "id": "daa889a9-f4c0-4f82-9850-2569c3cf3390",
    "title": "Kill everything, default answer is no",
    "start_time": 2839.199,
    "end_time": 2857.599,
    "video_id": "bb17dc86-8913-4b9d-9067-a4cbeebba9d7",
    "profile_id": "19c47219-e31a-4208-a6db-a135cff22207",
    "latitude": 43.6683953,
    "longitude": -79.3991697,
    "created_at": "2025-12-09T13:30:55.753+00:00"
  },
  {
    "id": "2ea258e4-05c1-4031-b407-88264080b18a",
    "title": "I know what work is!",
    "start_time": 1081.839,
    "end_time": 1196.24,
    "video_id": "ff8038f8-e164-49d1-898b-8c9a46fc9538",
    "profile_id": "19c47219-e31a-4208-a6db-a135cff22207",
    "latitude": 28.4116677,
    "longitude": -81.316045,
    "created_at": "2025-12-20T13:12:13.012+00:00"
  },
  {
    "id": "2968b110-0a25-4a44-af14-ebc0896472c8",
    "title": "Psychic abandonment",
    "start_time": 757.919,
    "end_time": 792.879,
    "video_id": "c30a40b3-2ae6-4e19-b59c-ca7f93a03e69",
    "profile_id": "19c47219-e31a-4208-a6db-a135cff22207",
    "latitude": 43.6866261,
    "longitude": -79.6219613,
    "created_at": "2025-12-11T16:10:45.522+00:00"
  },
  {
    "id": "4e97e147-fe0c-4cf3-9c7b-a7c40a2400e7",
    "title": "GLP1s are miracles",
    "start_time": 10956.318,
    "end_time": 11119.359,
    "video_id": "bb17dc86-8913-4b9d-9067-a4cbeebba9d7",
    "profile_id": "19c47219-e31a-4208-a6db-a135cff22207",
    "latitude": 43.6620377,
    "longitude": -79.391429,
    "created_at": "2025-12-10T13:41:35.145+00:00"
  },
  {
    "id": "eeed88d1-94a7-41a6-831c-0fd30253cba6",
    "title": "Hurt and be hurt",
    "start_time": 3128.079,
    "end_time": 3179.349,
    "video_id": "c30a40b3-2ae6-4e19-b59c-ca7f93a03e69",
    "profile_id": "19c47219-e31a-4208-a6db-a135cff22207",
    "latitude": 0,
    "longitude": 0,
    "created_at": "2025-12-20T16:32:18.148+00:00"
  },
  {
    "id": "ae7ed7b3-0bfd-4a89-b0fb-f270f9924fb5",
    "title": "Cant say that => have to say that",
    "start_time": 1005.039,
    "end_time": 1036.068,
    "video_id": "c30a40b3-2ae6-4e19-b59c-ca7f93a03e69",
    "profile_id": "19c47219-e31a-4208-a6db-a135cff22207",
    "latitude": 28.4116677,
    "longitude": -81.316045,
    "created_at": "2025-12-20T16:32:14.876+00:00"
  },
  {
    "id": "bd55485b-8f2e-4a03-bc55-b8306e2ebbd6",
    "title": "Google portal ;)",
    "start_time": 588.639,
    "end_time": 622.59,
    "video_id": "7eb49252-4abd-4b0b-a73f-503512ad8d73",
    "profile_id": "19c47219-e31a-4208-a6db-a135cff22207",
    "latitude": 0,
    "longitude": 0,
    "created_at": "2025-12-20T16:32:19.103+00:00"
  },
  {
    "id": "a01a0ce9-f710-4279-b56d-47ca1eeeebad",
    "title": null,
    "start_time": 422.879,
    "end_time": 432.8,
    "video_id": "9319d553-1ca4-4d68-9981-7b6b510caf1e",
    "profile_id": "19c47219-e31a-4208-a6db-a135cff22207",
    "latitude": 43.7992758,
    "longitude": -79.6131044,
    "created_at": "2025-12-08T15:23:56.161+00:00"
  },
  {
    "id": "cf1964c4-649e-4203-800a-6cae156f00ab",
    "title": "Material success is fine goal",
    "start_time": 148.239,
    "end_time": 173.919,
    "video_id": "bb17dc86-8913-4b9d-9067-a4cbeebba9d7",
    "profile_id": "19c47219-e31a-4208-a6db-a135cff22207",
    "latitude": 0,
    "longitude": 0,
    "created_at": "2025-12-09T13:03:10.283+00:00"
  },
  {
    "id": "d2eb44db-92b2-481f-a78b-a66a71018689",
    "title": "Collaboration is hard",
    "start_time": 4072.4,
    "end_time": 4103.349,
    "video_id": "6480b574-a065-45d5-8ca1-009d4e433f33",
    "profile_id": "19c47219-e31a-4208-a6db-a135cff22207",
    "latitude": 43.799284,
    "longitude": -79.6130946,
    "created_at": "2025-12-08T19:27:27.107+00:00"
  },
  {
    "id": "c46d8c2e-c488-4982-9244-ae222557c0c4",
    "title": null,
    "start_time": 131.56,
    "end_time": 1051.679,
    "video_id": "ad1383b5-a36d-4e2e-ab34-5c38cedbbd36",
    "profile_id": "19c47219-e31a-4208-a6db-a135cff22207",
    "latitude": 43.959288,
    "longitude": -79.4747805,
    "created_at": "2025-12-24T21:19:23.283+00:00"
  },
  {
    "id": "871cfd30-177a-4b9e-8986-9d023d5c9272",
    "title": "Virtues and high trust society = win win games",
    "start_time": 1434.558,
    "end_time": 1549.599,
    "video_id": "bb17dc86-8913-4b9d-9067-a4cbeebba9d7",
    "profile_id": "19c47219-e31a-4208-a6db-a135cff22207",
    "latitude": 43.7152066,
    "longitude": -79.4434901,
    "created_at": "2025-12-09T13:16:49.416+00:00"
  },
  {
    "id": "5a0bbcfe-84f5-4b2a-a699-43c6f897376b",
    "title": null,
    "start_time": 189.098,
    "end_time": 244.239,
    "video_id": "83b74153-793c-47bf-953b-d6e764ec2e12",
    "profile_id": "19c47219-e31a-4208-a6db-a135cff22207",
    "latitude": 43.9771568,
    "longitude": -79.3949476,
    "created_at": "2025-12-24T21:26:04.627+00:00"
  },
  {
    "id": "2c45f2b5-b6c8-4873-b98a-8bc25dfb9014",
    "title": "20 years AR education",
    "start_time": 249.598,
    "end_time": 260.319,
    "video_id": "f69cee2e-9f90-4beb-9882-a51ee32c523f",
    "profile_id": "19c47219-e31a-4208-a6db-a135cff22207",
    "latitude": 43.7992761,
    "longitude": -79.6130917,
    "created_at": "2025-12-08T16:23:38.56+00:00"
  },
  {
    "id": "267f7713-2331-4a60-8120-0f68f3e4535b",
    "title": "Fisherman capatilism story",
    "start_time": 2055.838,
    "end_time": 2073.349,
    "video_id": "bb17dc86-8913-4b9d-9067-a4cbeebba9d7",
    "profile_id": "19c47219-e31a-4208-a6db-a135cff22207",
    "latitude": 43.6897334,
    "longitude": -79.4213325,
    "created_at": "2025-12-09T13:23:33.443+00:00"
  },
  {
    "id": "a0dd8916-d5bb-4c54-8317-fddb18c5a212",
    "title": "No bad bones",
    "start_time": 3521.679,
    "end_time": 3560.869,
    "video_id": "c30a40b3-2ae6-4e19-b59c-ca7f93a03e69",
    "profile_id": "19c47219-e31a-4208-a6db-a135cff22207",
    "latitude": 0,
    "longitude": 0,
    "created_at": "2025-12-20T16:32:18.585+00:00"
  },
  {
    "id": "6d643c9d-9326-4d8b-9d11-b9499115a7ea",
    "title": "Sunscreen",
    "start_time": 66.159,
    "end_time": 101.92,
    "video_id": "d3288c5c-aab5-48b1-9ea7-3c8e05042fb4",
    "profile_id": "19c47219-e31a-4208-a6db-a135cff22207",
    "latitude": 35.2161747,
    "longitude": -80.9454825,
    "created_at": "2025-12-11T20:04:34.61+00:00"
  },
  {
    "id": "fad36577-1cdb-4614-a1b7-af2c7565c9fd",
    "title": "Too authentic for public",
    "start_time": 1161.519,
    "end_time": 1181.759,
    "video_id": "c30a40b3-2ae6-4e19-b59c-ca7f93a03e69",
    "profile_id": "19c47219-e31a-4208-a6db-a135cff22207",
    "latitude": 28.4089237,
    "longitude": -81.3184521,
    "created_at": "2025-12-20T16:32:15.003+00:00"
  },
  {
    "id": "bd585cd8-eb15-49c6-86a0-86aa0cf30480",
    "title": "Lockpicking tools",
    "start_time": 291.6,
    "end_time": 305.6,
    "video_id": "c30a40b3-2ae6-4e19-b59c-ca7f93a03e69",
    "profile_id": "19c47219-e31a-4208-a6db-a135cff22207",
    "latitude": 43.6866261,
    "longitude": -79.6219613,
    "created_at": "2025-12-11T16:05:02.953+00:00"
  },
  {
    "id": "134b203f-2b3a-4159-9c34-c0bc0582a099",
    "title": "IYI Science",
    "start_time": 9473.439,
    "end_time": 9578.079,
    "video_id": "bb17dc86-8913-4b9d-9067-a4cbeebba9d7",
    "profile_id": "19c47219-e31a-4208-a6db-a135cff22207",
    "latitude": 43.7087233,
    "longitude": -79.4406767,
    "created_at": "2025-12-10T13:25:03.25+00:00"
  },
  {
    "id": "c319f51b-de8c-44aa-b05c-5a211dd83475",
    "title": "Peptided for collegan",
    "start_time": 103.599,
    "end_time": 132.56,
    "video_id": "d3288c5c-aab5-48b1-9ea7-3c8e05042fb4",
    "profile_id": "19c47219-e31a-4208-a6db-a135cff22207",
    "latitude": 35.2161747,
    "longitude": -80.9454825,
    "created_at": "2025-12-11T20:05:02.458+00:00"
  },
  {
    "id": "d6538cbe-e11c-4e98-97f1-52c30428867c",
    "title": "The map is category theory for everything that can be percived",
    "start_time": 297.199,
    "end_time": 330.72,
    "video_id": "9350aa85-5c02-4f0b-9bef-2f3fd67bb58e",
    "profile_id": "19c47219-e31a-4208-a6db-a135cff22207",
    "latitude": 43.6866261,
    "longitude": -79.6219613,
    "created_at": "2025-12-11T16:22:15.998+00:00"
  },
  {
    "id": "4497172a-ff1a-431a-ac57-49409291a477",
    "title": null,
    "start_time": 417.12,
    "end_time": 445.598,
    "video_id": "9350aa85-5c02-4f0b-9bef-2f3fd67bb58e",
    "profile_id": "19c47219-e31a-4208-a6db-a135cff22207",
    "latitude": 43.6866261,
    "longitude": -79.6219613,
    "created_at": "2025-12-11T16:26:26.72+00:00"
  },
  {
    "id": "98131ec4-a5ef-47fb-84a9-4deafed392bd",
    "title": "Worlds problems are memetic viruses",
    "start_time": 3189.838,
    "end_time": 3334.96,
    "video_id": "bb17dc86-8913-4b9d-9067-a4cbeebba9d7",
    "profile_id": "19c47219-e31a-4208-a6db-a135cff22207",
    "latitude": 43.6546242,
    "longitude": -79.3882622,
    "created_at": "2025-12-09T13:35:51.589+00:00"
  },
  {
    "id": "fb54c63b-4077-49ed-8db8-4d62ea09c260",
    "title": "AI in healthcare and education",
    "start_time": 1053.2,
    "end_time": 1071.359,
    "video_id": "debbf99c-54d4-405f-acaa-738499dd07cf",
    "profile_id": "19c47219-e31a-4208-a6db-a135cff22207",
    "latitude": 43.7992784,
    "longitude": -79.6130856,
    "created_at": "2025-12-07T18:29:02.52+00:00"
  },
  {
    "id": "ad868beb-78a4-4372-8435-25c97405a7a2",
    "title": "Modern medicine is primitive",
    "start_time": 10808.478,
    "end_time": 10875.84,
    "video_id": "bb17dc86-8913-4b9d-9067-a4cbeebba9d7",
    "profile_id": "19c47219-e31a-4208-a6db-a135cff22207",
    "latitude": 43.6683953,
    "longitude": -79.3991697,
    "created_at": "2025-12-10T13:39:22.617+00:00"
  },
  {
    "id": "3eef0cc1-685a-4749-bf60-bdbf43496435",
    "title": "Levels of answering questions",
    "start_time": 8522.398,
    "end_time": 8634.308,
    "video_id": "bb17dc86-8913-4b9d-9067-a4cbeebba9d7",
    "profile_id": "19c47219-e31a-4208-a6db-a135cff22207",
    "latitude": 43.7412968,
    "longitude": -79.4533361,
    "created_at": "2025-12-10T13:14:52.679+00:00"
  },
  {
    "id": "37a85eb0-2a45-4f39-94b5-caa02d002905",
    "title": "Not about the stars",
    "start_time": 3118.719,
    "end_time": 3158.15,
    "video_id": "0e235d6d-d930-4b3b-9e25-f49ded9f8883",
    "profile_id": "19c47219-e31a-4208-a6db-a135cff22207",
    "latitude": 43.7992719,
    "longitude": -79.6130667,
    "created_at": "2025-12-08T21:04:36.497+00:00"
  },
  {
    "id": "28340450-25a9-436b-b33a-3f6ba41d0c56",
    "title": "Playing Quietly",
    "start_time": 411.038,
    "end_time": 430.069,
    "video_id": "0e235d6d-d930-4b3b-9e25-f49ded9f8883",
    "profile_id": "19c47219-e31a-4208-a6db-a135cff22207",
    "latitude": 43.7992854,
    "longitude": -79.6130662,
    "created_at": "2025-12-08T20:35:45.664+00:00"
  },
  {
    "id": "0c9fa0ab-d536-4865-b731-9515aaf98aa1",
    "title": "Started smoking",
    "start_time": 396.399,
    "end_time": 660.549,
    "video_id": "c30a40b3-2ae6-4e19-b59c-ca7f93a03e69",
    "profile_id": "19c47219-e31a-4208-a6db-a135cff22207",
    "latitude": 43.6866261,
    "longitude": -79.6219613,
    "created_at": "2025-12-11T16:09:18.643+00:00"
  },
  {
    "id": "337bd3f8-3afe-4fb9-aa50-6122039b95b3",
    "title": null,
    "start_time": 623.639,
    "end_time": 668.2,
    "video_id": "90e99714-0db1-4f3b-9c1a-f6263e9b22e9",
    "profile_id": "19c47219-e31a-4208-a6db-a135cff22207",
    "latitude": 43.8911621,
    "longitude": -79.5615732,
    "created_at": "2025-12-24T21:05:50.206+00:00"
  },
  {
    "id": "00763931-e248-4098-8a09-e908f577cb62",
    "title": "Register aliasing",
    "start_time": 536.97,
    "end_time": 573.019,
    "video_id": "0fdb9971-ad0d-495b-b6d7-38cdbf408b93",
    "profile_id": "19c47219-e31a-4208-a6db-a135cff22207",
    "latitude": 35.2190326,
    "longitude": -80.9427183,
    "created_at": "2025-12-11T19:31:49.179+00:00"
  },
  {
    "id": "84063d4c-c585-4364-a654-557ab235258b",
    "title": "Chunking",
    "start_time": 440.829,
    "end_time": 475.8,
    "video_id": "0fdb9971-ad0d-495b-b6d7-38cdbf408b93",
    "profile_id": "19c47219-e31a-4208-a6db-a135cff22207",
    "latitude": 35.2190326,
    "longitude": -80.9427183,
    "created_at": "2025-12-11T19:30:44.423+00:00"
  },
  {
    "id": "41dc0137-e1c7-4a87-9538-0735be71b42c",
    "title": "Studying Levels",
    "start_time": 592,
    "end_time": 612.399,
    "video_id": "9350aa85-5c02-4f0b-9bef-2f3fd67bb58e",
    "profile_id": "19c47219-e31a-4208-a6db-a135cff22207",
    "latitude": 43.6866261,
    "longitude": -79.6219613,
    "created_at": "2025-12-11T16:28:08.406+00:00"
  },
  {
    "id": "5ac0641f-c156-4920-8c23-b98d8d75296d",
    "title": "Give the feeling dialouge",
    "start_time": 2297.358,
    "end_time": 2308.789,
    "video_id": "c30a40b3-2ae6-4e19-b59c-ca7f93a03e69",
    "profile_id": "19c47219-e31a-4208-a6db-a135cff22207",
    "latitude": 0,
    "longitude": 0,
    "created_at": "2025-12-20T16:32:17.203+00:00"
  },
  {
    "id": "163d6a08-4d45-4059-90bf-6794677d470c",
    "title": "JM is mentor",
    "start_time": 3742.079,
    "end_time": 3771.909,
    "video_id": "c30a40b3-2ae6-4e19-b59c-ca7f93a03e69",
    "profile_id": "19c47219-e31a-4208-a6db-a135cff22207",
    "latitude": 0,
    "longitude": 0,
    "created_at": "2025-12-20T16:32:18.687+00:00"
  },
  {
    "id": "50e24e38-a295-42ca-b683-f4fbb9686939",
    "title": "Error Feeling 404",
    "start_time": 4654.479,
    "end_time": 4669.119,
    "video_id": "6480b574-a065-45d5-8ca1-009d4e433f33",
    "profile_id": "19c47219-e31a-4208-a6db-a135cff22207",
    "latitude": 43.7992815,
    "longitude": -79.6130872,
    "created_at": "2025-12-08T20:19:30.668+00:00"
  },